{"tripName":"California via Salgado Filho - Esta linha atende clinica São Lucas e também ao Tiro de Guerra - Londrina.","routeName":"201 - Califórnia","shape":"xjgmC`lgwH?}Cv@?bAA?}GC{B?uBzE?pGCdA?`ACDPDHHJHBH@H?HEFIBQTA~DE|D@dFA?wB?cA?aABeABkA?_VJSBOBsADY`CmCxFkGzEqFHDVBTILODK@KE]NQv@aAx@}@rC_DjEeFjE_FNB\\CRKNSvALtD`@A?jSpBBPDHLFRBRENKJQ?MAMnKeI|A{Af@o@`@o@f@cAb@uAb@kBv@z@rEzEn@r@t@sChAqErB}INk@w@i@qBoAuDcCpFqU\\yAhG~D`LzHPi@rDkMPk@xEfB`@L`@yAlAwDL_@yC_JM_@j@D`Cx@qAyD{BqGwBiGeA}CS}@o@wD?_@VeAR_AVkAXiAt@T`A\\`AVRD|@V`Bh@rBh@nBh@dEhA`GjB@~@","tzOffset":-3,"price":null,"stops":[{"stopId":15121346,"lat":-23.30814402,"lng":-51.1610625,"name":"Plataforma F - 201/221","int":1,"wait":0},{"stopId":153320,"lat":-23.31148045,"lng":-51.15773879,"name":"Rua Minas Gerais, 646","int":124,"wait":0},{"stopId":153641,"lat":-23.31424589,"lng":-51.15770434,"name":"Rua Pará, 670","int":181,"wait":0},{"stopId":153642,"lat":-23.31551088,"lng":-51.1567546,"name":"Rua Goiás, 572","int":219,"wait":0},{"stopId":153643,"lat":-23.31552323,"lng":-51.15425635,"name":"Rua Goiás, 287","int":263,"wait":0},{"stopId":153644,"lat":-23.3155651,"lng":-51.1514801,"name":"Avenida Santos Dumont, 2-62","int":312,"wait":0},{"stopId":153645,"lat":-23.31707945,"lng":-51.14973124,"name":"Avenida Santos Dumont, 254","int":355,"wait":0},{"stopId":153646,"lat":-23.319612,"lng":-51.1469471,"name":"Avenida Santos Dumont, 658","int":427,"wait":0},{"stopId":153647,"lat":-23.321383,"lng":-51.1449972,"name":"Avenida Santos Dumont, 800-914","int":475,"wait":0},{"stopId":153807,"lat":-23.3241268,"lng":-51.1439592,"name":"Avenida Comandante João Ribeiro de Barros, 104-220","int":538,"wait":0},{"stopId":153808,"lat":-23.3265553,"lng":-51.1443937,"name":"Avenida Comandante João Ribeiro de Barros, 404-538","int":585,"wait":0},{"stopId":153809,"lat":-23.3296094,"lng":-51.1429963,"name":"Avenida Salgado Filho, 260","int":657,"wait":0},{"stopId":153811,"lat":-23.3311043,"lng":-51.141057,"name":"Avenida Salgado Filho, 381-531","int":702,"wait":0},{"stopId":153813,"lat":-23.3331091,"lng":-51.1414433,"name":"Rua Comandante Rhull, 454-506","int":768,"wait":0},{"stopId":153815,"lat":-23.3340696,"lng":-51.1386269,"name":"Rua Comandante Rhull, 748","int":821,"wait":0},{"stopId":153817,"lat":-23.3331067,"lng":-51.13760772,"name":"Rua Mahatma Ghandi, 83-155","int":850,"wait":0},{"stopId":153819,"lat":-23.33366323,"lng":-51.13354416,"name":"Avenida Salgado Filho, 824","int":933,"wait":0},{"stopId":153821,"lat":-23.3359463,"lng":-51.1347592,"name":"Rua Lázaro Zamenhof, 839-899","int":993,"wait":0},{"stopId":153823,"lat":-23.33725891,"lng":-51.13543372,"name":"Rua Manoel Barbosa da Fonseca Filho, 46","int":1024,"wait":0},{"stopId":153825,"lat":-23.338148,"lng":-51.1331123,"name":"Rua Manoel Barbosa da Fonseca Filho, 194-300","int":1068,"wait":0},{"stopId":153827,"lat":-23.3395641,"lng":-51.1332706,"name":"Rua Maria Inácia de Almeida Campos, 348","int":1102,"wait":0},{"stopId":498589,"lat":-23.33981891,"lng":-51.131183,"name":"Avenida José Ventura Pinto, 670","int":1142,"wait":0},{"stopId":153829,"lat":-23.3396651,"lng":-51.1301994,"name":"Rua José Vitachi Filho, 496-580","int":1173,"wait":0},{"stopId":153831,"lat":-23.33924642,"lng":-51.12820114,"name":"Rua Maria José Carneiro, 560-790","int":1223,"wait":0},{"stopId":153833,"lat":-23.3381259,"lng":-51.125688,"name":"Rua Domênico Rotuno, 102-296","int":1272,"wait":0},{"stopId":561575,"lat":-23.33802242,"lng":-51.12400353,"name":"Rua Domênico Rotuno, 298-366","int":1303,"wait":0},{"stopId":153837,"lat":-23.3396207,"lng":-51.1236736,"name":"Rua Antônio Belasco, 278-322","int":1347,"wait":0},{"stopId":153839,"lat":-23.3411673,"lng":-51.1242959,"name":"Rua Antônio Belasco, 330-618","int":1378,"wait":0},{"stopId":153840,"lat":-23.34351431,"lng":-51.12549613,"name":"Rua Matilde Yoshiko Honda, 2-52","int":1431,"wait":0}]}