{"tripName":"Terminal Central","routeName":"200 - Vila Brasil","shape":"folmCtvdwH{TFaCPgAXsUEeAnBBnF?rF@zB{D?uC@qC?}C?wC@@|NoIAkBAChHAnEsE@_G?sDBoGA_D@B~EAnF@bF@bIwJAuJ@}J@A]_A?y@A?[?k@?aAAo@","tzOffset":-3,"price":null,"stops":[{"stopId":498995,"lat":-23.33444296,"lng":-51.14742918,"name":"Rua Capitão Pedro Rufino, 346","int":0,"wait":0},{"stopId":153793,"lat":-23.3288705,"lng":-51.1477143,"name":"Rua Peru, 201-307","int":125,"wait":0},{"stopId":153064,"lat":-23.32645719,"lng":-51.14766898,"name":"Rua Peru, 1-27","int":179,"wait":0},{"stopId":153794,"lat":-23.325942,"lng":-51.1494657,"name":"Rua Colômbia, 657-663","int":221,"wait":0},{"stopId":498982,"lat":-23.32577515,"lng":-51.151281,"name":"Rua Chile, 781","int":263,"wait":0},{"stopId":153796,"lat":-23.323713,"lng":-51.1512709,"name":"Rua Chile, 757-875","int":309,"wait":0},{"stopId":153797,"lat":-23.3222771,"lng":-51.1512601,"name":"Rua Chile, 647-755","int":341,"wait":0},{"stopId":153798,"lat":-23.32103342,"lng":-51.15379138,"name":"Rua Brasil, 1311","int":421,"wait":0},{"stopId":498962,"lat":-23.3197607,"lng":-51.15414509,"name":"Avenida Juscelino Kubitscheck, 3515","int":454,"wait":0},{"stopId":155319,"lat":-23.31784601,"lng":-51.15632748,"name":"Rua Mato Grosso, 1003","int":543,"wait":0},{"stopId":153641,"lat":-23.31424589,"lng":-51.15770434,"name":"Rua Pará, 670","int":647,"wait":0},{"stopId":153803,"lat":-23.3143729,"lng":-51.1598647,"name":"Rua Pará, 845","int":691,"wait":0},{"stopId":153909,"lat":-23.31343584,"lng":-51.16139071,"name":"Rua Professor João Cândido, 515","int":746,"wait":0},{"stopId":15127337,"lat":-23.30813827,"lng":-51.16039022,"name":"Plataforma C - 100","int":886,"wait":0}]}