{"tripName":"Jd. Europa","routeName":"206 - Jd. Europa","shape":"tigmClggwH?GR?hA?`AA?eGCkGzE?pGCdA?`ACBNJRLFT@HEFIBQTA~DE|D@dFA`FCnEBhE?|FApO?tMAPBXJtR?|DA`E?ND|@@hA?z@?~@@`B@p@@X@LOJGl@_@z@g@\\m@Pk@Jg@LaATaA\\yALo@Li@ZyALk@Lg@DU?U?SAUMe@Se@aBmBm@q@sAkBaB_CM_@C_E?{DA_KzK?p@?v@?hB@dABj@N\\RXV\\\\T`@","tzOffset":-3,"price":null,"stops":[{"stopId":153320,"lat":-23.31148045,"lng":-51.15773879,"name":"Rua Minas Gerais, 646","int":115,"wait":0},{"stopId":153641,"lat":-23.31424589,"lng":-51.15770434,"name":"Rua Pará, 670","int":172,"wait":0},{"stopId":153876,"lat":-23.3164124,"lng":-51.1577109,"name":"Rua Senador Souza Naves 452 - Hosp. Santa Casa","int":213,"wait":0},{"stopId":498358,"lat":-23.31857004,"lng":-51.15769663,"name":"Rua Senador Souza Naves, 676","int":254,"wait":0},{"stopId":498359,"lat":-23.32121395,"lng":-51.15769275,"name":"Rua Senador Souza Naves, 1000","int":304,"wait":0},{"stopId":498370,"lat":-23.32393073,"lng":-51.15769524,"name":"Rua Senador Souza Naves, 1293","int":356,"wait":0},{"stopId":153880,"lat":-23.32608219,"lng":-51.15778754,"name":"Rua Senador Souza Naves, 1550","int":397,"wait":0},{"stopId":153903,"lat":-23.3288557,"lng":-51.1577752,"name":"Rua Senador Souza Naves, 1820-1824","int":450,"wait":0},{"stopId":153884,"lat":-23.3338209,"lng":-51.1554337,"name":"Rua Clóvis Beviláqua, 264-350","int":569,"wait":0},{"stopId":153885,"lat":-23.3337125,"lng":-51.1530358,"name":"Rua Marcílio Dias, 234","int":614,"wait":0},{"stopId":153886,"lat":-23.3322594,"lng":-51.1509222,"name":"Rua Almirante Barroso, 26","int":662,"wait":0},{"stopId":153887,"lat":-23.3322693,"lng":-51.1477008,"name":"Rua Almirante Barroso, 358","int":718,"wait":0},{"stopId":153888,"lat":-23.3332323,"lng":-51.1474943,"name":"Rua Capitão Pedro Rufino, 206","int":741,"wait":0},{"stopId":153889,"lat":-23.3345277,"lng":-51.1474943,"name":"Rua Capitão Pedro Rufino, 370-388","int":766,"wait":0},{"stopId":153890,"lat":-23.33643393,"lng":-51.14809781,"name":"Rua Capitão Pedro Rufino, 568-684","int":806,"wait":0}]}