{"tripName":"Emaús","routeName":"220 - Emaús / Shopping Catuaí","shape":"fjnmCzflwH?jAAR?Z?nAGn@Eb@?R@\\F\\Jh@BL@X?R?RCHCFEHCDEDyCWiHs@UCc@G]EQIMIi@]w@u@s@u@}B{BSTrEtEt@h@PNVL\\HRBBVB\\H`AHdAH`ANvBRnCLlBL|ARnBJdBLjBLbBLvBBl@@b@@@BA@ECs@GgAG}@IaAW{DG_ASuBUkCOyBG}@Gw@WaDIoAKkAAUjBRfBPzEh@tARFDJDLDL@F?N?HBLBXFTHl@`@x@d@f@X@DD^Dz@HfAPlBRtBXvDf@tHJxBRfC@B@BdETbBZ`MRP@FDDF?|@m@x[Cl@En@AdACbAAlACdAIdDA~@CdA?r@?vACP@l@Ar@El@Gp@Sv@Qn@G^Mr@Ir@cAbIaA~GQ`@W`@_@l@w@~@cAz@kAfAGFEBGAKCGAK@GBIDEDEHEFAJ?L@HBJDHFHHFHBF@H@FAFAFCDCDCDE@CBG@G@I?GAICG?E?C@AFENMh@i@n@m@\\[~@iAZc@`@q@Nc@RgALgA`BmM|@mGNyAEo@?o@?KAaBHyIHqEV@Bu@@UvBFpBB~ET|I\\nBD","tzOffset":-3,"price":null,"stops":[{"stopId":153066,"lat":-23.34382343,"lng":-51.18601963,"name":"Terminal Shopping Catuaí","int":2,"wait":0},{"stopId":153963,"lat":-23.34386147,"lng":-51.18789102,"name":"Avenida Terras de Santana, 386-712","int":35,"wait":0},{"stopId":154011,"lat":-23.34335615,"lng":-51.18844406,"name":"Rodovia Mabio Gonçalves Palhano, 45","int":57,"wait":0},{"stopId":154013,"lat":-23.34148356,"lng":-51.1880908,"name":"Rodovia Mabio Gonçalves Palhano, 600","int":93,"wait":0},{"stopId":208321,"lat":-23.3419086,"lng":-51.19312405,"name":"Rua Takabumi Murata, 422-512","int":271,"wait":0},{"stopId":154012,"lat":-23.34327043,"lng":-51.18870641,"name":"Rodovia Mabio Gonçalves Palhano, 750","int":463,"wait":0},{"stopId":153964,"lat":-23.34538097,"lng":-51.1903292,"name":"Rua Rubéns Carlos de Jesus, 90-202","int":520,"wait":0},{"stopId":499115,"lat":-23.34674493,"lng":-51.19545655,"name":"Rua Constantino Pialarissi, 2407-2525","int":620,"wait":0},{"stopId":153395,"lat":-23.3493212,"lng":-51.2063848,"name":"Avenida Gil de Abreu Souza - Vale das Acácias","int":872,"wait":0},{"stopId":154073,"lat":-23.3487941,"lng":-51.2085977,"name":"Avenida Gil de Abreu e Souza, 1564-1656","int":912,"wait":0},{"stopId":154074,"lat":-23.3474224,"lng":-51.2115937,"name":"Avenida Gil de Abreu e Souza","int":972,"wait":0},{"stopId":498536,"lat":-23.34902822,"lng":-51.20857573,"name":"Avenida Gil de Abreu e Souza, 1515-1793","int":1076,"wait":0},{"stopId":154075,"lat":-23.3494171,"lng":-51.2067658,"name":"Avenida Gil de Abreu e Souza, 1373-1453","int":1109,"wait":0},{"stopId":154072,"lat":-23.3499318,"lng":-51.2012243,"name":"Rua João Domes do Nascimento, 12-516","int":1209,"wait":0},{"stopId":153147,"lat":-23.35454942,"lng":-51.20143983,"name":"Chácaras Emaús","int":1299,"wait":0}]}