{"tripName":"Hilda Mandarino","routeName":"412 - Hilda Mandarino","shape":"tebmCpkiwHd@rBB`@?x@M`@ENCL?JBJBHcDjCyDG@x@Bj@Ff@^hAf@jA^|@JZJXHTBRn@rGyMf@gFReFRgBBIoFwBAcDjGcAlI`BKhBKp@EVCXCN~BHnB@\\ELEJ?\\FdBB`AB~@iBPcCTs@Dm@BwEb@{@Hw@FJ~C@v@@dA`@Af@?v@GfBSNvB","tzOffset":-3,"price":null,"stops":[{"stopId":153083,"lat":-23.28177129,"lng":-51.17156469,"name":"Terminal Ouro Verde","int":5,"wait":0},{"stopId":155122,"lat":-23.28092181,"lng":-51.17344912,"name":"Rua Quênia, 104","int":50,"wait":0},{"stopId":155121,"lat":-23.28057523,"lng":-51.17519769,"name":"Rua Rodesia, 195","int":98,"wait":0},{"stopId":155120,"lat":-23.2810416,"lng":-51.1769503,"name":"Rua Rodesia, 326","int":131,"wait":0},{"stopId":155118,"lat":-23.27986347,"lng":-51.17716923,"name":"Rua Osmy Muniz, 271","int":158,"wait":0},{"stopId":155117,"lat":-23.27861625,"lng":-51.17728937,"name":"Rua André Emílio Guergoletto, 171","int":182,"wait":0},{"stopId":155116,"lat":-23.27715113,"lng":-51.17737916,"name":"Rua Osmy Muniz, 515","int":210,"wait":0},{"stopId":155115,"lat":-23.2759661,"lng":-51.1769825,"name":"Rua João Batista Francoti, 97","int":243,"wait":0},{"stopId":155114,"lat":-23.27541892,"lng":-51.17628471,"name":"Rua Antônio Escudeiro Martins, 50","int":263,"wait":0},{"stopId":155113,"lat":-23.27451958,"lng":-51.17751706,"name":"Rua Antônio Escudeiro Martins, 172","int":291,"wait":0},{"stopId":155112,"lat":-23.2749411,"lng":-51.1792624,"name":"Rua Carlos Alberto Franco Lichiti, 365","int":340,"wait":0},{"stopId":155111,"lat":-23.27568277,"lng":-51.18019031,"name":"Rua Amélia Venturini Baggio, 278","int":372,"wait":0},{"stopId":155110,"lat":-23.2756778,"lng":-51.18153962,"name":"Rua Jesuíno Caetano dos Santos, 72","int":396,"wait":0},{"stopId":155109,"lat":-23.2742964,"lng":-51.18212212,"name":"Rua Cacilda Nasralla Neme, 842","int":431,"wait":0},{"stopId":155108,"lat":-23.27258596,"lng":-51.18238086,"name":"Rua Antônio Urias, 67","int":464,"wait":0},{"stopId":155107,"lat":-23.27250532,"lng":-51.18369582,"name":"Rua Enoch Vieira dos Santos, 1029","int":489,"wait":0},{"stopId":155158,"lat":-23.27368726,"lng":-51.18425307,"name":"Rua José Freitas dos Santos, 70","int":524,"wait":0}]}