{"tripName":"Terminal Vivi Xavier","routeName":"413 - Residencial do Café","shape":"do_mCjelwHsA?k@?g@A?M?U@Qt@qCx@wCXmALe@Le@T_AZaA\\_AXu@^w@r@qAb@o@DGFADCFADADEDEDI@E@I?IDW`AoA|JD}AtB}IEEKEWCGEGCEEEECGCICGAG?I?G@KDE@EDEFCFCHAH?H?F@F@DBH@BAFC@I?gDFgF@oF?wEAeB?s@?]?[?mA?cA@CxBuHH@oH?y@?oB?w@@w@@qA?i@@g@@iB?iB?uB@y@@u@FkD@eC?{BOGQSeA?CKByCR?Az@","tzOffset":-3,"price":null,"stops":[{"stopId":155134,"lat":-23.26794108,"lng":-51.18559047,"name":"Rua Luísa Donoso Gonzáles, 238","int":0,"wait":0},{"stopId":155135,"lat":-23.26798026,"lng":-51.18295647,"name":"Avenida Pedro Carrasco Alduan, 1255","int":67,"wait":0},{"stopId":155136,"lat":-23.26889384,"lng":-51.18116699,"name":"Avenida Pedro Carrasco Alduan, 111","int":103,"wait":0},{"stopId":20577292,"lat":-23.2711277,"lng":-51.18060927,"name":"Rua Francisco de Melo Palheta, 1107","int":176,"wait":0},{"stopId":155137,"lat":-23.26754531,"lng":-51.18078255,"name":"Rua Café Robusta, 27","int":257,"wait":0},{"stopId":155138,"lat":-23.26568669,"lng":-51.18082805,"name":"Rua Francisco de Melo Palheta, 473","int":292,"wait":0},{"stopId":155139,"lat":-23.26399413,"lng":-51.18081754,"name":"Rua Francisco de Melo Palheta, 281","int":324,"wait":0},{"stopId":154671,"lat":-23.26105521,"lng":-51.18035097,"name":"Avenida Saul Elkind, 4681","int":391,"wait":0},{"stopId":154639,"lat":-23.26111007,"lng":-51.17716174,"name":"Avenida Saul Elkind, 4289","int":447,"wait":0},{"stopId":215282,"lat":-23.26069141,"lng":-51.17269903,"name":"Terminal Vivi Xavier","int":534,"wait":0}]}