{"tripName":"Terminal Milton Gavetti","routeName":"415 - Itapoá","shape":"~~ylCzldwH@dAnIW~CMfAGfAAv@DP@EV|Av@fDbBrOvHvBbBnAdADBVYjAcAvC_DhB`AjAn@d@VRJPHd@Tt@\\dCnA`EhBzAt@bB~@rDrB\\TjAWrAWxJyBb@CXBj@Ho@dKw@|LJv@\\GEWtC_@hAOfAQlEmA`Dy@dBe@bAWd@M^KLVRLVHX?JCTKNODOFQ?Q?G`Aa@x@c@dA{@zByCfBkCr@cAXc@Z_@XW~@q@d@UnCi@vGcAf@Gf@EhAa@NEh@FHT^\\dAd@|G|B`AF|@Kl@g@l@uANWRIXEnCAxJ?~DAxA?l@@l@?vKBbB?h@Al@BJFTDH?N^H^`@hBRdBDbBTnBFPRNLLRXFJFJPj@","tzOffset":-3,"price":null,"stops":[{"stopId":13417776,"lat":-23.23963331,"lng":-51.1459276,"name":"Avenida Bento Amaral Monteiro, 2580","int":0,"wait":0},{"stopId":13417778,"lat":-23.24169887,"lng":-51.1461711,"name":"Avenida Bento Amaral Monteiro, 2438","int":44,"wait":0},{"stopId":13417779,"lat":-23.24390187,"lng":-51.14665094,"name":"Avenida Bento Amaral, 2209","int":92,"wait":0},{"stopId":155177,"lat":-23.24673583,"lng":-51.1482109,"name":"Avenida Bento Amaral Monteiro, 1919","int":152,"wait":0},{"stopId":155178,"lat":-23.24908252,"lng":-51.14858485,"name":"Rua Luiza Denardim Menocin, 126","int":209,"wait":0},{"stopId":155179,"lat":-23.25111444,"lng":-51.14910801,"name":"Rua Holando Caram, 48","int":256,"wait":0},{"stopId":155180,"lat":-23.25275139,"lng":-51.15006076,"name":"Rua Guilherme Augusto Menoncin, 60","int":291,"wait":0},{"stopId":155167,"lat":-23.25753898,"lng":-51.15057554,"name":"Avenida Saul Elkind, 1350","int":390,"wait":0},{"stopId":154886,"lat":-23.25780255,"lng":-51.15274853,"name":"Avenida Saul Elkind, 1530","int":440,"wait":0},{"stopId":155165,"lat":-23.25982768,"lng":-51.15439234,"name":"Rua Odilon Braga, 222","int":526,"wait":0},{"stopId":154880,"lat":-23.26273179,"lng":-51.15372239,"name":"R. Euclides Figueiredo, 2","int":586,"wait":0},{"stopId":154878,"lat":-23.2646686,"lng":-51.1517698,"name":"Avenida Curitiba","int":638,"wait":0},{"stopId":154876,"lat":-23.26879024,"lng":-51.14938424,"name":"Rodovia Carlos João Strass, 3000","int":732,"wait":0},{"stopId":153086,"lat":-23.28153053,"lng":-51.15264243,"name":"Terminal Milton Gavetti","int":1029,"wait":0}]}