{"tripName":"Chácara Primavera até Flores do Campo","routeName":"418 - Chácara Primavera","shape":"vdbmCxvewH`@~@FRELAT?X@Pf@hAX|@XrBWDONUZ@z@s@f@cAb@uBr@}@LsCDuB?g@DKISFELuA@QKEQIs@EiEHwBiCCcC?i@Bo@IuCByNAwADYw@Wy@SgBJgDb@wHq@M[Y@Q`@]T_@Vi@?a@[c@}@IgCC[IUKaAaA{AaBWUKEOESCSAQBSFa@b@O`@ETGHIFUXWPu@VkANuBTeFz@o@Lg@Ng@R}@l@oApAe@p@wBfDmAfBw@~@q@l@y@d@[N]JQEMM[Q@aBLqGCuA?oECeB@{EEoO_KAwBAgI??iEAk@Eg@Wu@w@uBCq@ViBNy@Lk@JaAV}@b@gDBe@JOXUbA_@p@Yd@a@h@m@bAqAb@g@^i@TBPCNIRUDMBM?G?ECOCGEGEEGEGEGAGAIAG@G@I@EDGBEFEDIBIBM@W@]AWAG?S?U?S@W?M?I?q@AmOQ[Ac@?a@?W?O?e@A]?y@AWA_AAA?A\\UAk@?i@?}@AsAA[?UAe@As@AOAs@?_A?@]Bw@@cA@_AB{@A[?}@B}@@cA@iB@mAwAAwAAi@yBUs@M_@G[?S@c@Fo@Fk@Jq@Pm@Pg@Vi@FSBW@UA[Em@AKAY@ULaALeABUB_@@c@@a@Fa@BQHWRw@Ps@Lg@Nm@J_@HYJu@B_@Bq@Ba@@a@B_@DgAD_@Bc@FcA@[BW@_@Da@Hq@DeADu@@YHmADq@Bc@Bk@FiAHo@Bi@QE[Eo@Ga@C]?e@Cw@Gy@E]C]CYC]E[Ce@Ec@Co@Es@Eu@CSAOAOAQCc@Ck@EWCYAYAu@Eg@EUCWCo@Ey@Gq@EwBM}@E}CU_DS}@GwAMa@EKA?@?@XBZB\\Bx@Hd@BR@PBlBJt@FZBXB^B\\BXBR@P?jBLpAF`AHf@Dp@FjAF^B\\BpAHTB^BN@P?h@DZ@b@BV@r@FR@XBVBZB`@D^B~@FL?F@^BXBb@B\\?`@Bn@FXDPDCf@In@GhACh@CXEz@IpAGpAE`AIn@E`@EbACVK`BC^A^Er@Cj@Ej@An@C^Kr@Qr@Sr@_@zAOj@Mh@CNG`@C`@?b@C^OnAOlAAT@V@PBf@@^?RCVGRKTKRQd@Ql@Kp@Iv@Ed@Ad@?NFZb@rAR|@V~@V~B@r@?dACx@Af@AHEhBA`@Cn@AV?l@Af@CV`@@b@@fA@@?`A@|@?T?b@@P@X?T@X@V?b@?d@@p@?X?b@?r@@j@@d@@h@?f@@d@@`@@?_@?i@@k@?kA?m@?[BcA?q@@g@@k@?a@@a@?m@@q@?w@@u@@y@?e@?m@@cA?Sd@@`@@j@?P?DSHi@Nq@Hc@F_@F]Hg@F_@He@Jc@Py@F[NaALm@Lo@Hc@ReABOHa@Ly@N{@BSPy@BODMDEHKPKj@Ij@Gr@IFi@B[Js@Fe@Hi@Jo@Hm@Hg@Fc@F_@F]Hk@Fe@Jo@LeAJk@Ji@BOJm@No@","tzOffset":-3,"price":null,"stops":[{"stopId":153086,"lat":-23.28153053,"lng":-51.15264243,"name":"Terminal Milton Gavetti","int":0,"wait":0},{"stopId":154875,"lat":-23.26811818,"lng":-51.14923651,"name":"Rodovia Carlos João Strass, 3000","int":360,"wait":0},{"stopId":154879,"lat":-23.26341922,"lng":-51.15273272,"name":"Avenida Curitiba, 2197","int":473,"wait":0},{"stopId":17058190,"lat":-23.26283957,"lng":-51.15175623,"name":"Rua Pintarroxo, 23","int":508,"wait":0},{"stopId":154921,"lat":-23.2628447,"lng":-51.14914071,"name":"Rua Calandra, 46","int":554,"wait":0},{"stopId":155007,"lat":-23.26185623,"lng":-51.14518622,"name":"Rua Lázaro José Carias de Souza, 318","int":640,"wait":0},{"stopId":155005,"lat":-23.25935314,"lng":-51.14518946,"name":"Rua Euvira Nhola Fonseca, 88","int":688,"wait":0},{"stopId":154949,"lat":-23.25825615,"lng":-51.14303985,"name":"Avenida Saul Elkind, 585","int":742,"wait":0},{"stopId":155368,"lat":-23.25998657,"lng":-51.13919672,"name":"Avenida Saul Elkind, 125","int":825,"wait":0},{"stopId":154962,"lat":-23.25963332,"lng":-51.1377753,"name":"Rua Guilhermina Lahman, 119","int":889,"wait":0},{"stopId":213238,"lat":-23.2568646,"lng":-51.13769652,"name":"Rua Guilhermina Lahman, 410","int":942,"wait":0},{"stopId":155204,"lat":-23.25390406,"lng":-51.13776448,"name":"Rua Guilhermina Lahman, 733","int":1001,"wait":0},{"stopId":155206,"lat":-23.25265667,"lng":-51.13770518,"name":"Rua Guilhermina Lahman, 865","int":1025,"wait":0},{"stopId":155208,"lat":-23.25221404,"lng":-51.13657429,"name":"Rua C, 25","int":1057,"wait":0},{"stopId":3690798,"lat":-23.25153073,"lng":-51.13429592,"name":"Rua Jordelino Silva, 282","int":1108,"wait":0},{"stopId":442786,"lat":-23.25284027,"lng":-51.1220777,"name":"Estrada Chácaras Primavera","int":1334,"wait":0},{"stopId":153295,"lat":-23.2433523,"lng":-51.1206533,"name":"Estrada Chácaras Primavera","int":1518,"wait":0},{"stopId":386814,"lat":-23.25314945,"lng":-51.13782189,"name":"Rua Guilhermina Lahman, 805","int":2022,"wait":0},{"stopId":154966,"lat":-23.25583524,"lng":-51.13746935,"name":"Rua Alzira Postali Gewehr, 25","int":2082,"wait":0},{"stopId":154965,"lat":-23.25587148,"lng":-51.13574737,"name":"Rua Alzira Postali Gewehr, 215","int":2112,"wait":0},{"stopId":29259053,"lat":-23.25991236,"lng":-51.12368895,"name":"Rua Maria Leordina Pereira, 10","int":2356,"wait":0}]}