{"tripName":"Terminal Vivi Xavier","routeName":"423 - São Jorge","shape":"`yzlCjwlwHc@?w@Sg@GbDzHVPn@DtF@bLI{BoHnTJAiB?{EzAB?bC?bCAv@lD@|EAzCBBnA|FlFdAhAbC`ChGFpTVD{PFY@sAHsFHySA}@Bu@Jo`@@iC?kCJaHAuG]CYCUCSCIIVsA","tzOffset":-3,"price":null,"stops":[{"stopId":23842274,"lat":-23.24384896,"lng":-51.1885064,"name":"Rua Angelo Giroldo, 1045","int":0,"wait":0},{"stopId":24702125,"lat":-23.24345787,"lng":-51.18906561,"name":"Rua Angelo Giroldo, 1045","int":26,"wait":0},{"stopId":24702126,"lat":-23.24741623,"lng":-51.19011765,"name":"Rua Maria Inês Leonel Oliveira, 306","int":111,"wait":0},{"stopId":155261,"lat":-23.24961585,"lng":-51.18865291,"name":"Rua João Marquês da Silva, 487","int":194,"wait":0},{"stopId":155264,"lat":-23.2504252,"lng":-51.1886448,"name":"Rua João Marquês da Silva, 335","int":209,"wait":0},{"stopId":155265,"lat":-23.25057761,"lng":-51.18738717,"name":"Rua Maria Sarzedas, 20","int":232,"wait":0},{"stopId":155266,"lat":-23.25093064,"lng":-51.18838365,"name":"Rua Joaquim Salvino de Oliveira, 198","int":273,"wait":0},{"stopId":155267,"lat":-23.25212688,"lng":-51.18863491,"name":"Rua Eliza Isabel da Conceição, 257","int":299,"wait":0},{"stopId":155268,"lat":-23.2537077,"lng":-51.1889559,"name":"Rua Édson Esorigdero, 269-319","int":335,"wait":0},{"stopId":155269,"lat":-23.25522702,"lng":-51.19044489,"name":"Rua Terezinha Pereira Trindade, 13","int":374,"wait":0},{"stopId":155270,"lat":-23.2561572,"lng":-51.191268,"name":"Rua Antônio M de Oliveira, 377-539","int":397,"wait":0},{"stopId":154695,"lat":-23.26095753,"lng":-51.18795542,"name":"Avenida Saul Elkind, 5389-5417","int":546,"wait":0},{"stopId":154696,"lat":-23.2609911,"lng":-51.18594342,"name":"Avenida Saul Elkind, 5215","int":581,"wait":0},{"stopId":154697,"lat":-23.26100678,"lng":-51.18415952,"name":"Avenida Saul Elkind, 5031","int":612,"wait":0},{"stopId":154671,"lat":-23.26105521,"lng":-51.18035097,"name":"Avenida Saul Elkind, 4681","int":679,"wait":0},{"stopId":154639,"lat":-23.26111007,"lng":-51.17716174,"name":"Avenida Saul Elkind, 4289","int":735,"wait":0},{"stopId":215282,"lat":-23.26069141,"lng":-51.17269903,"name":"Terminal Vivi Xavier","int":822,"wait":0}]}