{"tripName":"Terminal Acapulco","routeName":"800 - Terminal Vivi Xavier / Terminal Acapulco","shape":"tchmCpchwH?fCbFAfFAdI@`I@~@Dp@J`GfBXJJFNXVLN?DCBEr@PzBx@zAd@|FlBtA`@tD@pDCbDAbD?vI@rNJvN?vBAvB?tA@HJHDEpBYnNL?pCBpIBj@Ex@Wl@]l@m@pAqB^YZMjCOtB?lADrGE|A?xABjRFh@?rD`Nj@bAjB}FtBqFnByF~BsFPa@n@iA|Wm_@r@_At@}@`NkQ`BuBp@y@n@w@lEgGTCRH\\XVG@OBM^c@`@c@~AUn@Kn@KPCHAF?FDDH@JCFEDKDM?K@}Ch@","tzOffset":-3,"price":null,"stops":[{"stopId":208415,"lat":-23.31206009,"lng":-51.16471024,"name":"Rua Pio XII, 323","int":0,"wait":0},{"stopId":153911,"lat":-23.31315308,"lng":-51.16561098,"name":"Avenida Higienópolis, 350","int":32,"wait":0},{"stopId":153930,"lat":-23.31507385,"lng":-51.1655907,"name":"Avenida Higienópolis, 562","int":69,"wait":0},{"stopId":153932,"lat":-23.31888961,"lng":-51.1659596,"name":"Avenida Higienópolis, 1000","int":143,"wait":0},{"stopId":153934,"lat":-23.32139869,"lng":-51.16706274,"name":"Avenida Higienópolis, 1316","int":196,"wait":0},{"stopId":153935,"lat":-23.32388213,"lng":-51.16778287,"name":"Avenida Higienópolis, 1600","int":245,"wait":0},{"stopId":499331,"lat":-23.32647958,"lng":-51.16778054,"name":"Avenida Higienópolis, 1904","int":295,"wait":0},{"stopId":153939,"lat":-23.32804798,"lng":-51.16778262,"name":"Avenida Higienópolis, 2100","int":325,"wait":0},{"stopId":154002,"lat":-23.33337529,"lng":-51.16784066,"name":"Rua Valparaíso, 189","int":427,"wait":0},{"stopId":154003,"lat":-23.33487254,"lng":-51.16842064,"name":"Avenida Madre Leônia Milito, 572","int":468,"wait":0},{"stopId":153944,"lat":-23.33554978,"lng":-51.17098239,"name":"Avenida Garibalde Deliberador, 48-138","int":526,"wait":0},{"stopId":498948,"lat":-23.33784637,"lng":-51.17081436,"name":"Avenida Garibalde Deliberador, 328-480","int":570,"wait":0},{"stopId":153947,"lat":-23.3410196,"lng":-51.1696225,"name":"Avenida Garibaldi Deliberador, 636-682","int":639,"wait":0},{"stopId":153949,"lat":-23.34284854,"lng":-51.16964318,"name":"Avenida Garibaldi Deliberador, 800","int":674,"wait":0},{"stopId":155320,"lat":-23.34576598,"lng":-51.1696759,"name":"Avenida Garibaldi Deliberador, 1046","int":730,"wait":0},{"stopId":155412,"lat":-23.3481144,"lng":-51.1708939,"name":"Rodovia Celso Garcia Cid","int":822,"wait":0},{"stopId":153956,"lat":-23.35033136,"lng":-51.16668338,"name":"Avenida dos Expedicionários, 82","int":908,"wait":0},{"stopId":154061,"lat":-23.352675,"lng":-51.1635554,"name":"Rodovia Celso Garcia Cid, 2571","int":979,"wait":0},{"stopId":154062,"lat":-23.3543323,"lng":-51.1614391,"name":"Rodovia Celso Garcia Cid, 2571","int":1028,"wait":0},{"stopId":19960314,"lat":-23.36055754,"lng":-51.15533023,"name":"Rua Maria Vidal da Silva, ponto 800","int":1221,"wait":0}]}