{"tripName":"Boulevard / HU","routeName":"900 - Terminal Vivi Xavier / Boulevard / HU","shape":"db~lC|tiwHBw@NGAWRC\\@ATBxECtBAnCAvB`CBzBBlAAdBBlB?lBA~A?jBBvAAbB@nB@n@?tC?vC?tACnAAdBIxAY`AW|@[bDsAdDqAdAa@HHTHZB^IPMLWBWCe@nFuC`A_@t@Ib@?hC?jA@hA@dB@t@@Z@V?jCBdA@`@@d@@~FJbF?BFJJRFT?FATMJUDUEUISOQYG[a@]a@c@iB}@wEBOJGHAHFDH@RA`@fA`FLr@ATBNA^QJIPGZD`@NXTHVBVGr@L~RDHEPOc@_Fs@qIaC@s@gIO_BMqBKoA]{DYyC_@}DOwAUiB[cCUkCMsAUuC_@iEi@kGm@gI]aEEm@Eo@LIJIJQFS@QEYIUOMSKKCOqAa@}BScAGOIMa@WOMGKIQk@kBAUB_@Iw@M?[TbAdAd@vAX`AEdABJLFLALQDq@T{@D]HUdEoAt@s@j@w@Xk@No@Bo@@i@BoAA_JNgAt@UjBEnO?pGB`BCn@?ZAR?bDS~CU`@Oj@YlAw@nAm@pAm@lCkAhAe@h@Qd@MjAWrAO`D[`@DdR_@fLWdCEdA@\\BXDx@Rt@TTZj@j@NJJ@dAdA`AfA`A~@fAf@~@X|@ThAVfATpGjAfDn@|E~@TRTNdCd@\\F^PLPNNVPNDJ?R?RKRWJYDWAYESKMOOMQK_@Ic@@mBDyCHeDD_AJsAr@yGr@wGfBFt@@h@@~DF~ADn@@f@@d@?ZWz@@V?XAFo@Ly@TyAb@kDhA@nBDlBFrB?BFDFFBH?HCDI@GAIIO~@yGHmA@i@@e@BkC?iA?cAB_[?yD?qDAg@~H@p@Ab@IpAg@h@Qf@QrJuCScAUaA]yAUeAU_Aa@cB_@eBbAu@v@u@l@eAXy@R{@H_@Jc@Lm@v@d@n@b@n@`@bEfC","tzOffset":-3,"price":null,"stops":[{"stopId":215282,"lat":-23.26069141,"lng":-51.17269903,"name":"Terminal Vivi Xavier","int":2,"wait":0},{"stopId":155123,"lat":-23.26232269,"lng":-51.17555018,"name":"Avenida Francisco Gabriel Arruda, 1439","int":94,"wait":0},{"stopId":155229,"lat":-23.2639614,"lng":-51.1755341,"name":"Avenida Francisco Gabriel Arruda, 1241","int":125,"wait":0},{"stopId":155232,"lat":-23.2652427,"lng":-51.17554482,"name":"Avenida Francisco Gabriel Arruda, 1097","int":149,"wait":0},{"stopId":155234,"lat":-23.26788922,"lng":-51.17552725,"name":"Avenida Francisco Gabriel Arruda, 655","int":199,"wait":0},{"stopId":155236,"lat":-23.2703581,"lng":-51.1753276,"name":"Avenida Francisco Gabriel Arruda, 259-327","int":246,"wait":0},{"stopId":155238,"lat":-23.2722652,"lng":-51.1744076,"name":"Avenida Francisco Gabriel Arruda, 51-111","int":286,"wait":0},{"stopId":155240,"lat":-23.27455676,"lng":-51.17303498,"name":"Rua Lindalva Silva Bassetto, 50","int":341,"wait":0},{"stopId":155242,"lat":-23.27661899,"lng":-51.17273219,"name":"Rua Senegal, 40","int":382,"wait":0},{"stopId":154725,"lat":-23.27940433,"lng":-51.17281264,"name":"Avenida Winston Churchil, 1477","int":435,"wait":0},{"stopId":153083,"lat":-23.28177129,"lng":-51.17156469,"name":"Terminal Ouro Verde","int":520,"wait":0},{"stopId":155068,"lat":-23.28372167,"lng":-51.16349424,"name":"Avenida Henrique Mansano, 1040","int":855,"wait":0},{"stopId":155079,"lat":-23.2829831,"lng":-51.1586952,"name":"Avenida Henrique Mansano, 1510","int":940,"wait":0},{"stopId":153086,"lat":-23.28153053,"lng":-51.15264243,"name":"Terminal Milton Gavetti","int":1057,"wait":0},{"stopId":153441,"lat":-23.28388056,"lng":-51.15111165,"name":"Rua Américo Deolindo Garla, 288","int":1171,"wait":0},{"stopId":155192,"lat":-23.2847792,"lng":-51.1480576,"name":"Rodovia Carlos João Strass, 880","int":1239,"wait":0},{"stopId":155309,"lat":-23.29185628,"lng":-51.14766349,"name":"Rodovia Carlos João Strass, 399","int":1374,"wait":0},{"stopId":153548,"lat":-23.29823064,"lng":-51.14573664,"name":"Avenida Dez de Dezembro, 580","int":1504,"wait":0},{"stopId":155310,"lat":-23.30214409,"lng":-51.14554855,"name":"Avenida Dez de Dezembro, 964","int":1579,"wait":0},{"stopId":153419,"lat":-23.3044151,"lng":-51.1468907,"name":"Avenida Dez de Dezembro, 1231","int":1631,"wait":0},{"stopId":153776,"lat":-23.31160426,"lng":-51.14577057,"name":"Avenida Theodoro Victorelli, 162-300","int":1848,"wait":0},{"stopId":213288,"lat":-23.31208686,"lng":-51.14324034,"name":"Avenida Theodoro Victorelli, 650","int":1893,"wait":0},{"stopId":213310,"lat":-23.31341201,"lng":-51.14280295,"name":"Rua Santa Teresinha, 1077","int":1927,"wait":0},{"stopId":153326,"lat":-23.31618631,"lng":-51.14170553,"name":"Avenida Celso Garcia Cid, 1730","int":1993,"wait":0},{"stopId":153327,"lat":-23.31736712,"lng":-51.14097127,"name":"Rua Catarina de Bora, 495","int":2028,"wait":0},{"stopId":154398,"lat":-23.31866566,"lng":-51.1405739,"name":"Avenida São João, 710","int":2060,"wait":0},{"stopId":153370,"lat":-23.31899973,"lng":-51.137863,"name":"Avenida São João, 978","int":2108,"wait":0},{"stopId":499315,"lat":-23.31899409,"lng":-51.13556836,"name":"Avenida São João, 1176","int":2148,"wait":0},{"stopId":154396,"lat":-23.31899156,"lng":-51.1328809,"name":"Avenida São João, 1562","int":2195,"wait":0},{"stopId":154395,"lat":-23.31899377,"lng":-51.13098723,"name":"Avenida São João, 1770","int":2228,"wait":0},{"stopId":153639,"lat":-23.32176133,"lng":-51.13033036,"name":"Avenida do Café, 851","int":2288,"wait":0},{"stopId":153638,"lat":-23.32342462,"lng":-51.12966293,"name":"Rua Vasco da Gama, 20","int":2322,"wait":0},{"stopId":155436,"lat":-23.32347726,"lng":-51.12872308,"name":"Rua Emílio Aranda, 20","int":2341,"wait":0},{"stopId":447223,"lat":-23.32398951,"lng":-51.12490294,"name":"Rua Áurea Erthal Sorace, 225","int":2419,"wait":0},{"stopId":153349,"lat":-23.32568706,"lng":-51.12589698,"name":"Rua Elías Toseti, 40","int":2462,"wait":0}]}