{"tripName":"Terminal Acapulco","routeName":"227 - Jd. Botânico","shape":"`{qmC~ajwHc@mAa@wAgCqImE}NuCqJ_AuCQk@M_@MSIKg@c@w@S]?W@QBoI|AuGnAyARe@Fm@DwFb@y@HsB@s@Ac@?U@[AKAOAk@Iq@Iq@GMCMCCAEACCGEMGDMHMFKRUjBkChT{ZbB{BnQwUtBgC`CwCjAcBFAFAJAN@TBVIJIPUl@o@vEs@J@HFBFIFM@ODWB[B}@L","tzOffset":-3,"price":null,"stops":[{"stopId":153564,"lat":-23.3619263,"lng":-51.174877,"name":"Avenida dos Expedicionários","int":0,"wait":0},{"stopId":153956,"lat":-23.35033136,"lng":-51.16668338,"name":"Avenida dos Expedicionários, 82","int":346,"wait":0},{"stopId":154061,"lat":-23.352675,"lng":-51.1635554,"name":"Rodovia Celso Garcia Cid, 2571","int":417,"wait":0},{"stopId":154062,"lat":-23.3543323,"lng":-51.1614391,"name":"Rodovia Celso Garcia Cid, 2571","int":466,"wait":0},{"stopId":19960323,"lat":-23.36024914,"lng":-51.15528917,"name":"Rua Maria Vidal da Silva, ponto 227","int":627,"wait":0}]}