{"tripName":"Teminal Central","routeName":"351 - Parador Terminal Oeste","shape":"xeemCpolwH@uCHMLABEDKDSBg@LkAPaAHoL@cBJwCVeC`@kB`@}Ah@kB~@uCb@oCJq@HcBLoBl@sIf@qGDUBCHGFILY?UEQCSGQh@cB|F}Kr@wBlAeHl@sCd@iBvA_DjBcC`AiArAcAr@e@nAo@xEyA|G_CtA}@z@_ARYJw@@mE?KDKp@??oC","tzOffset":-3,"price":null,"stops":[{"stopId":153447,"lat":-23.2971959,"lng":-51.1871803,"name":"Terminal  Região Oeste","int":2,"wait":0},{"stopId":154373,"lat":-23.29779697,"lng":-51.18129816,"name":"Avenida Abélio Benati, 4161-4205","int":108,"wait":0},{"stopId":154371,"lat":-23.2988193,"lng":-51.1782619,"name":"Avenida Abélio Benati, 3707-3993","int":165,"wait":0},{"stopId":154369,"lat":-23.29917946,"lng":-51.17585107,"name":"Rua Guilherme da Mota Corrêa, 3453","int":208,"wait":0},{"stopId":154366,"lat":-23.30025676,"lng":-51.17186352,"name":"Avenida Arcebispo Dom Geraldo Fernandes, 3059","int":284,"wait":0},{"stopId":154365,"lat":-23.3012212,"lng":-51.1701965,"name":"Avenida Arcebispo Dom Geraldo Fernandes, 2561-2719","int":318,"wait":0},{"stopId":154362,"lat":-23.30229198,"lng":-51.16688205,"name":"Avenida Arcebispo Dom Geraldo Fernandes, 2215","int":380,"wait":0},{"stopId":154358,"lat":-23.3062909,"lng":-51.1639068,"name":"Avenida Arcebispo Dom Geraldo Fernandes, 1601-1689","int":476,"wait":0},{"stopId":15127336,"lat":-23.30813334,"lng":-51.16071209,"name":"Plataforma C - 311/351","int":552,"wait":0}]}