{"tripName":"Terminal Central - Via Terminal Região Oeste","routeName":"314 - Jardim Olímpico","shape":"xtlmCporwH^l@{BnBqCzB[R}AzAo@v@cBpCw@tBu@x@{@hAyBzBqAnAwHtHaDr@_Dp@[aAIYuAwBs@kA}AeCaA{AgA{AyCjBaBdAmCjBbAfCf@|@l@tAl@zAHTcD`BiAd@k@TkBd@eA?yAQR}BFq@LiANyBa@MiE_@wDc@wAM}@Oy@QGSGSWFYH\\dAXz@Nd@kEnBkEpBwCzAoAf@eAPwADuAAD~A_D?_CA_B?yHf@O?UQI]Ca@VmHTYl@s@hFqFbEmE~BaCdBiBt@o@zA{Al@m@VZVXLMwDoEpK{KdMsMxBaCBRF@LDB?F?F?RQHS@YIW[WYAGHCHAHwBkCqCaDQPkN|NaLjLgBdBIM_@a@sC_DcBqBCe@u@{@cBuBaDkDeG}GzHiIbAeAr@q@jBq@d@MrBc@d@EhDqDjDoDVSkE}E}BeCe@c@q@g@k@]yAoA_FsFiEyEkEgF}AgBgEmEaE}EoAyAsE{EuCiDoAqA_CyBg@q@}EqFqAsA{CiDuC}C_C{Be@w@Qk@Ku@IYReAn@kC`@kADa@S]YEcAr@oAr@_Dd@eAM@e@NaHS{Aa@@O_@P_I@m@^CLZGhAIrFc@H]hCIhGAh@Ar@Z\\j@MxBCdBWhB{@p@c@TBcB~GSzBd@TZOVOa@qB|@kDfCeJfAkF`@_CNqBJiB\\mERuCPkDx@yMFyAX}CVwDPeEJy@LgAJiBV{FR}AJeB^yCZw@h@k@v@Yz@AbCb@n@BTAj@O^QZUd@s@~EoIHGLEXGdHGvE?AUA{FAyNBwFEgF?uL?}Ck@?@_A","tzOffset":-3,"price":null,"stops":[{"stopId":154582,"lat":-23.3352888,"lng":-51.21809992,"name":"Rua Antônio Martins Lardin, 45","int":1,"wait":0},{"stopId":154583,"lat":-23.33415561,"lng":-51.21934286,"name":"Avenida da Maratona, 2650","int":37,"wait":0},{"stopId":6088012,"lat":-23.33252455,"lng":-51.22136435,"name":"Rua Kiyofume Morioka, 2800","int":84,"wait":0},{"stopId":154584,"lat":-23.32911989,"lng":-51.22482574,"name":"Avenida da Maratona, 909","int":175,"wait":0},{"stopId":154585,"lat":-23.32766858,"lng":-51.22496458,"name":"Rua Severino Peba, 162","int":209,"wait":0},{"stopId":154586,"lat":-23.3268995,"lng":-51.22384422,"name":"Rua Adelina Piqueti Barrios, 318","int":233,"wait":0},{"stopId":154587,"lat":-23.32554196,"lng":-51.22232358,"name":"Rua Adelina Piqueti Barrios, 257","int":271,"wait":0},{"stopId":17047666,"lat":-23.32391781,"lng":-51.22355246,"name":"Rua da Ginástica Olímpica, 140","int":309,"wait":0},{"stopId":154589,"lat":-23.32371321,"lng":-51.22386161,"name":"Rua da Ginástica Olímpica, 140","int":316,"wait":0},{"stopId":154244,"lat":-23.3236366,"lng":-51.22632176,"name":"Rua Aparecida Bernardes Caetano, 337-565","int":379,"wait":0},{"stopId":154246,"lat":-23.3221842,"lng":-51.22576849,"name":"Rua do Judô, 350","int":426,"wait":0},{"stopId":154247,"lat":-23.32211695,"lng":-51.22463938,"name":"Rua do Basquetebol, 310","int":449,"wait":0},{"stopId":154248,"lat":-23.32025732,"lng":-51.22422691,"name":"Rua do Basquetebol, 85","int":485,"wait":0},{"stopId":154249,"lat":-23.31878935,"lng":-51.22499679,"name":"Rua Hélio Antônio Bevenho, 651-661","int":539,"wait":0},{"stopId":154250,"lat":-23.3173435,"lng":-51.2258041,"name":"Rua Hélio Antônio Bevenho, 661","int":570,"wait":0},{"stopId":154251,"lat":-23.31517215,"lng":-51.22663559,"name":"Rua Hélio Antônio Bevenho, 263-331","int":615,"wait":0},{"stopId":154238,"lat":-23.31339495,"lng":-51.2271264,"name":"Avenida Hugo Seben, 356","int":658,"wait":0},{"stopId":154236,"lat":-23.3115771,"lng":-51.2251201,"name":"Rua Barão de Barão do Cerro Azul, 438-466","int":743,"wait":0},{"stopId":154232,"lat":-23.31320282,"lng":-51.22346251,"name":"Rua Barão de Barão do Cerro Azul, 706","int":785,"wait":0},{"stopId":154230,"lat":-23.3143581,"lng":-51.2222287,"name":"Rua Barão de Barão do Cerro Azul, 896","int":816,"wait":0},{"stopId":383131,"lat":-23.31562844,"lng":-51.22099011,"name":"Rua Barão do Cerro Azul, 1086","int":849,"wait":0},{"stopId":154570,"lat":-23.31739148,"lng":-51.21771591,"name":"Rua Vital Ferreira Chagas, 475","int":945,"wait":0},{"stopId":154567,"lat":-23.31976139,"lng":-51.21524936,"name":"Rua Vital Ferreira Chagas, 8","int":1008,"wait":0},{"stopId":154260,"lat":-23.31922471,"lng":-51.21345062,"name":"Rua Elizio Turino, 5","int":1067,"wait":0},{"stopId":16217035,"lat":-23.31817672,"lng":-51.21354716,"name":"Rua Elizio Turino, 81","int":1092,"wait":0},{"stopId":396639,"lat":-23.31407237,"lng":-51.21779233,"name":"Rua Elízio Turino, 636-762","int":1200,"wait":0},{"stopId":154254,"lat":-23.31268258,"lng":-51.2172225,"name":"Rua Marechal Hermes da Fonseca, 110","int":1240,"wait":0},{"stopId":154591,"lat":-23.310481,"lng":-51.2146139,"name":"Avenida Valdomiro Ferreira da Silva, 218","int":1303,"wait":0},{"stopId":154592,"lat":-23.30998795,"lng":-51.21273149,"name":"Rua Cristóvão Cardoso de Barros, 128","int":1353,"wait":0},{"stopId":154593,"lat":-23.31201083,"lng":-51.21094867,"name":"Rua Estácio de Sá, 70","int":1404,"wait":0},{"stopId":154595,"lat":-23.31445255,"lng":-51.20911999,"name":"Rua Antônio Salema, 245","int":1461,"wait":0},{"stopId":154560,"lat":-23.3131898,"lng":-51.20698049,"name":"Avenida Arthur Thomas, 2100","int":1512,"wait":0},{"stopId":499384,"lat":-23.31086766,"lng":-51.20473973,"name":"Avenida Arthur Thomas, 1611-1731","int":1571,"wait":0},{"stopId":154552,"lat":-23.3085048,"lng":-51.20209928,"name":"Avenida Arthur Thomas, 1528","int":1636,"wait":0},{"stopId":154550,"lat":-23.30652783,"lng":-51.19995079,"name":"Avenida Arthur Thomas, 1174","int":1689,"wait":0},{"stopId":154288,"lat":-23.30474953,"lng":-51.19808584,"name":"Avenida Arthur Thomas, 937","int":1736,"wait":0},{"stopId":154187,"lat":-23.3029678,"lng":-51.1961952,"name":"Avenida Arthur Thomas, 659-691","int":1784,"wait":0},{"stopId":154188,"lat":-23.301475,"lng":-51.1945778,"name":"Avenida Arthur Thomas, 435-477","int":1824,"wait":0},{"stopId":154189,"lat":-23.29969184,"lng":-51.19255687,"name":"Avenida Arthur Thomas, 177","int":1873,"wait":0},{"stopId":154087,"lat":-23.29771613,"lng":-51.1902488,"name":"Avenida Universo 393-469","int":1966,"wait":0},{"stopId":153447,"lat":-23.2971959,"lng":-51.1871803,"name":"Terminal  Região Oeste","int":2033,"wait":0},{"stopId":154086,"lat":-23.29864836,"lng":-51.19028444,"name":"Avenida Universo, 354-392","int":2167,"wait":0},{"stopId":154088,"lat":-23.29988388,"lng":-51.18885115,"name":"Avenida Tiradentes, 1461","int":2286,"wait":0},{"stopId":498896,"lat":-23.30055982,"lng":-51.1864168,"name":"Avenida Tiradentes, 1241-1329","int":2330,"wait":0},{"stopId":154092,"lat":-23.3009305,"lng":-51.1832669,"name":"Avenida Tiradentes, 977","int":2386,"wait":0},{"stopId":498907,"lat":-23.30133888,"lng":-51.17988753,"name":"Avenida Tiradentes, 530","int":2446,"wait":0},{"stopId":154097,"lat":-23.30184761,"lng":-51.17615692,"name":"Avenida Tiradentes, 313","int":2512,"wait":0},{"stopId":154100,"lat":-23.30412445,"lng":-51.17305368,"name":"Avenida Juscelino Kubitscheck, 212","int":2602,"wait":0},{"stopId":154101,"lat":-23.3069664,"lng":-51.17068171,"name":"Avenida Juscelino Kubitscheck, 612","int":2675,"wait":0},{"stopId":154102,"lat":-23.30880151,"lng":-51.16947591,"name":"Rua Benjamin Constant, 1941","int":2730,"wait":0},{"stopId":154103,"lat":-23.3087887,"lng":-51.1662,"name":"Rua Benjamin Constant, 1605","int":2787,"wait":0},{"stopId":154104,"lat":-23.30878747,"lng":-51.16437024,"name":"Rua Benjamin Constant, 1445","int":2819,"wait":0},{"stopId":15121358,"lat":-23.30853815,"lng":-51.16102763,"name":"Plataforma J - 317/314","int":2882,"wait":0}]}