{"tripName":"N.  Esperança / Tito Leal","routeName":"204 - Tito Leal","shape":"~xwmCpd~vHM{H{AFBtBaERMiGi@f@_@p@M`@Kn@Ed@?^EJsAPRxAn@zAj@dA`EhIwDnJMz@QhKo@b@{@LqFpAyDE_C@{An@eBjDiBzEOWMG]FYF[I[CYX[n@Mr@Fj@Sx@gCdDw@r@m@NkAFuADmAZg@ZQn@Sn@W~@AxARrBTbBh@xC?~AKXGf@QPMl@Kf@aCdCiHbG_LnJyQfPiNfLaBlAeC|AeDlCkCjBON|@vA|BeBt@o@jBmAbDtFv@hE`AxAzItM_HlFkOeUyAvAzAzBaBtAoDrCnEhGgFjGsHiJeIlElDtDzA|A_GvC[SqEbKeMC@xE?h@jMB\\xOiBH}IlAsNvBi@FzEpM","tzOffset":-3,"price":null,"stops":[{"stopId":498305,"lat":-23.39230892,"lng":-51.11316618,"name":"Rua Henrique Vicente, 158-208","int":12,"wait":0},{"stopId":498306,"lat":-23.39192115,"lng":-51.11231646,"name":"Rua Luzia Russo Rodrigues, 1-51","int":34,"wait":0},{"stopId":498307,"lat":-23.39149731,"lng":-51.112913,"name":"Rua João Rodrigues, 53-103","int":53,"wait":0},{"stopId":498302,"lat":-23.39097069,"lng":-51.11655336,"name":"Rua Rosane Wainberg, 1091-1187","int":194,"wait":0},{"stopId":498300,"lat":-23.39035854,"lng":-51.11817164,"name":"Rua Rosane Wainberg, 906-974","int":225,"wait":0},{"stopId":498299,"lat":-23.390255,"lng":-51.11980354,"name":"Rua Rosane Wainberg, 725","int":254,"wait":0},{"stopId":498296,"lat":-23.38772677,"lng":-51.12068972,"name":"Rua Rosane Wainberg, 449-491","int":308,"wait":0},{"stopId":499117,"lat":-23.38147415,"lng":-51.126583,"name":"Rua dos Cozinheiros, 571","int":491,"wait":0},{"stopId":498219,"lat":-23.380187,"lng":-51.13099973,"name":"PR-218, 3283","int":583,"wait":0},{"stopId":499308,"lat":-23.3716663,"lng":-51.14144264,"name":"Rua José Luís Andrade, 170-222","int":929,"wait":0},{"stopId":499169,"lat":-23.37230576,"lng":-51.142948,"name":"Rua José Luís Andrade, 354","int":958,"wait":0},{"stopId":499168,"lat":-23.37314115,"lng":-51.14406219,"name":"Rua José Luís Andrade, 510","int":983,"wait":0},{"stopId":499167,"lat":-23.37336561,"lng":-51.14550392,"name":"Rua Tomás Fabrício, 95","int":1020,"wait":0},{"stopId":498186,"lat":-23.37206276,"lng":-51.14554146,"name":"Rua Ivone Freitas Lopes, 523-573","int":1056,"wait":0},{"stopId":498138,"lat":-23.37092991,"lng":-51.14403019,"name":"Rua Ivone Freitas Lopes, 313-363","int":1090,"wait":0},{"stopId":498139,"lat":-23.36968177,"lng":-51.14293146,"name":"Rua Ivone Freitas Lopes, 160-168","int":1127,"wait":0},{"stopId":498152,"lat":-23.36939983,"lng":-51.14413372,"name":"Rua Seis, 445-499","int":1158,"wait":0},{"stopId":498183,"lat":-23.3693423,"lng":-51.14604346,"name":"Rua João Satistela, 128-188","int":1204,"wait":0},{"stopId":498185,"lat":-23.3686856,"lng":-51.14731936,"name":"Rua Dez, 2-186","int":1235,"wait":0},{"stopId":498212,"lat":-23.3674772,"lng":-51.14645334,"name":"Rua Antônio Vieira da Silva, 295","int":1269,"wait":0},{"stopId":498213,"lat":-23.365367,"lng":-51.14696481,"name":"Rua Miguel Gilardi Ortega, 174-238","int":1325,"wait":0},{"stopId":499127,"lat":-23.366364,"lng":-51.14803792,"name":"Rua Miguel Gilardi Ortega, 308-372","int":1352,"wait":0},{"stopId":499129,"lat":-23.3649937,"lng":-51.14922602,"name":"Rua Teresa de Souza, 56-228","int":1395,"wait":0},{"stopId":499130,"lat":-23.3621623,"lng":-51.15071346,"name":"Rua Francisca Hosken de Farias Castro, 123","int":1464,"wait":0},{"stopId":499132,"lat":-23.36291138,"lng":-51.15211674,"name":"Avenida Presidente Euríco Gáspar Dutra, 246","int":1513,"wait":0},{"stopId":499125,"lat":-23.36423953,"lng":-51.15444674,"name":"Rua Ludovina da Silva Barroso, 258","int":1578,"wait":0},{"stopId":13096817,"lat":-23.35991534,"lng":-51.15719067,"name":"Avenida Chepli Tanus Daher, 215","int":1707,"wait":0}]}