{"tripName":"Terminal Ouro Verde","routeName":"430 - Flor de Lotus","shape":"rp~lCd~owHCwA@aH?wD?{JAeIBu@HKtIFdKElKHIdEUlIXHj@Bb@`@f@Pn@B`@UbBeAfAgAnAcArCyAjAMVF\\HVId@YZg@D_@Ao@Sg@U}ANEdACjBWpBO|D]nF]lBWjBMRAxASQoBOuGAoHC}ARsFEcFf@QPSn@cEp@aBbC{HV{@jGoOtGiP~AoEV{@DaEEoQyBJCKIeGGyB@w@?yFDwADIHKPEHAJGFMDOFQ?QEKCMOKUOy@u@IS}AuHBKDEDGDAB?F@DH?J@V?N?LDTDPH^DP","tzOffset":-3,"price":null,"stops":[{"stopId":17058189,"lat":-23.26305399,"lng":-51.20499036,"name":"Avenida Rosalvo Marques Bonfim, 1501","int":0,"wait":0},{"stopId":16475165,"lat":-23.26304855,"lng":-51.19961559,"name":"Avenida Rosalvo Marques Bonfim, 899","int":94,"wait":0},{"stopId":155711,"lat":-23.2638045,"lng":-51.19839303,"name":"Rua André Buck, 376","int":132,"wait":0},{"stopId":215286,"lat":-23.26643779,"lng":-51.19844287,"name":"Rua André Buck, 637","int":182,"wait":0},{"stopId":16234348,"lat":-23.2684765,"lng":-51.19841082,"name":"Rua André Buck, 285","int":221,"wait":0},{"stopId":155703,"lat":-23.26851795,"lng":-51.19971004,"name":"Rua Gregório de Souza Vacário, 930","int":248,"wait":0},{"stopId":18478862,"lat":-23.27254205,"lng":-51.19848722,"name":"Rua J, 81","int":383,"wait":0},{"stopId":154483,"lat":-23.27386437,"lng":-51.19816666,"name":"Rua Ildo Garcia, 449","int":410,"wait":0},{"stopId":154484,"lat":-23.27559766,"lng":-51.197952,"name":"Rua Ildo Garcia, 266","int":443,"wait":0},{"stopId":154485,"lat":-23.27672305,"lng":-51.19771445,"name":"Rua Ildo Garcia, 141","int":465,"wait":0},{"stopId":154478,"lat":-23.27783015,"lng":-51.19638428,"name":"Rua Oséias Furtoso, 929","int":507,"wait":0},{"stopId":13064402,"lat":-23.28050072,"lng":-51.1854548,"name":"Vila dos Ipê","int":713,"wait":0},{"stopId":155146,"lat":-23.28134641,"lng":-51.18378353,"name":"Rua Antônio Cotarelli, 34","int":746,"wait":0},{"stopId":155144,"lat":-23.28247861,"lng":-51.18149562,"name":"Rua Felipe Souza Lopes, 22","int":792,"wait":0},{"stopId":155141,"lat":-23.28270757,"lng":-51.1779419,"name":"Rua Tanganica, 490","int":855,"wait":0},{"stopId":153236,"lat":-23.28203468,"lng":-51.1756474,"name":"Rua André Emílio Guergoletto, 8","int":908,"wait":0},{"stopId":153083,"lat":-23.28177129,"lng":-51.17156469,"name":"Terminal Ouro Verde","int":988,"wait":0}]}