{"tripName":"Flor de Lotus","routeName":"902 - Flor de Lotus / Maritacas","shape":"`c~lCnuiwHCp@?^CDMAKAEC?g@?{@@m@B]NUXAXBLFExFOhVOtUI~SMvV@\\HTHNFp@Qv^MzR@nEKVMZElBQp[HFpKBBVAnIAfBFlAHb@","tzOffset":-3,"price":null,"stops":[{"stopId":215282,"lat":-23.26069141,"lng":-51.17269903,"name":"Terminal Vivi Xavier","int":21,"wait":0},{"stopId":154654,"lat":-23.26087978,"lng":-51.1774126,"name":"Avenida Saul Elkind, 4276-4326","int":124,"wait":0},{"stopId":249686,"lat":-23.26081652,"lng":-51.18138647,"name":"Avenida Saul Elkind, 4759","int":194,"wait":0},{"stopId":154656,"lat":-23.26077274,"lng":-51.1833125,"name":"Avenida Saul Elkind, 4916-4992","int":228,"wait":0},{"stopId":154657,"lat":-23.26076447,"lng":-51.1846268,"name":"Avenida Saul Elkind, 5077","int":251,"wait":0},{"stopId":154658,"lat":-23.26074566,"lng":-51.18597023,"name":"Avenida Saul Elkind, 5168","int":275,"wait":0},{"stopId":154659,"lat":-23.26070753,"lng":-51.18752324,"name":"Rua dos Pintores, 73","int":302,"wait":0},{"stopId":154693,"lat":-23.2607382,"lng":-51.1941245,"name":"Avenida Saul Elkind, 5915-5983","int":418,"wait":0},{"stopId":155271,"lat":-23.2607185,"lng":-51.1972037,"name":"Avenida Saul Elkind","int":472,"wait":0},{"stopId":18442713,"lat":-23.26261242,"lng":-51.20628035,"name":"Avenida Rosalvo Marques Bonfim, 1650","int":670,"wait":0}]}