{"tripName":"Terminal Milton Gavetti","routeName":"421 - Jardim Alpes","shape":"tdbmCbgiwHpAlG?NAPBJ@JAJANKJMXEND`@JRVH`@@VCJHXFZCb@Ev@?|@A|@DdA?j@B~AHr@Bp@?xABNGAO?c@mAqOzFBqA{OrB?z@Bx@MCWwAiPcRAGImBkUf@ExAAtBJxICJEAO{@mKAI_Fj@uBV}BT{BLiAyMEs@_@aFDYJOFQ?QAQCQCQOOWSMGY{BOy@Mg@Og@ISUSUMOQMe@Ui@Qm@K[J]R@TTPl@","tzOffset":-3,"price":null,"stops":[{"stopId":153083,"lat":-23.28177129,"lng":-51.17156469,"name":"Terminal Ouro Verde","int":18,"wait":0},{"stopId":19550693,"lat":-23.2857264,"lng":-51.17019473,"name":"Rua Francisco de Oliveira, 110","int":177,"wait":0},{"stopId":155062,"lat":-23.28642159,"lng":-51.168368,"name":"Rua José Domingos de Oliveira, 244","int":227,"wait":0},{"stopId":155063,"lat":-23.28663905,"lng":-51.1675123,"name":"Rua Jonas Barbosa Leite, 429","int":250,"wait":0},{"stopId":155064,"lat":-23.28716501,"lng":-51.16541903,"name":"Rua Eládio Yanes Péres, 701","int":301,"wait":0},{"stopId":155065,"lat":-23.28651945,"lng":-51.16444171,"name":"Rua Mauro Ferreira, 285","int":325,"wait":0},{"stopId":155067,"lat":-23.2847521,"lng":-51.16447,"name":"Rua Mauro Ferreira, 322-392","int":359,"wait":0},{"stopId":155068,"lat":-23.28372167,"lng":-51.16349424,"name":"Avenida Henrique Mansano, 1040","int":394,"wait":0},{"stopId":155069,"lat":-23.2839267,"lng":-51.1609215,"name":"Rua Claudir Martinez Rossi, 271","int":452,"wait":0},{"stopId":155071,"lat":-23.2852054,"lng":-51.160951,"name":"Rua Claudir Martinês Rossi, 67-129","int":476,"wait":0},{"stopId":155075,"lat":-23.28614755,"lng":-51.15891206,"name":"Rua Amélia Ferreira Marquês, 177","int":532,"wait":0},{"stopId":155077,"lat":-23.2838508,"lng":-51.15907514,"name":"Rua Doutora Anita Carvalho, 171","int":577,"wait":0},{"stopId":155079,"lat":-23.2829831,"lng":-51.1586952,"name":"Avenida Henrique Mansano, 1510","int":603,"wait":0},{"stopId":153086,"lat":-23.28153053,"lng":-51.15264243,"name":"Terminal Milton Gavetti","int":718,"wait":0}]}