{"tripName":"Jd. Bandeirantes via Graciosa","routeName":"308 - Jardim Bandeirantes","shape":"‾femCvnlwHAdAAhAMBQ?OHAHCNCh@I|@C‾B?bA@pAA`@EFGJAN?JDRJJNDP@NAJKDIDEVBbAAbAGz@Yv@[z@g@PKJEFCDDBB@HGNKXg@pBc@dCS‾A?LBLDFNDJ?JFlIzInJfKfDvD|BbCfDvDpCrCjBnBkBtBiBtByAvAURrA|AvC‾C`@b@f@b@f@d@f@j@v@|@z@jARR^XZp@LNHT@^A^Kd@]r@Kt@GZK^c@xAu@zCcAfDCXSf@S¥¥OHWZyCdDwCdDm@q@wAyAcMgNdDkDiAkAi@k@sAgA","tzOffset":-3,"price":null,"stops":[{"stopId":153447,"lat":-23.2971959,"lng":-51.1871803,"name":"Terminal  Regiﾃ｣o Oeste","int":0,"wait":0},{"stopId":154086,"lat":-23.29864836,"lng":-51.19028444,"name":"Avenida Universo, 354-392","int":98,"wait":0},{"stopId":154158,"lat":-23.299288,"lng":-51.1925345,"name":"Avenida Arthur Thomas, 100","int":166,"wait":0},{"stopId":154159,"lat":-23.3012902,"lng":-51.1947012,"name":"Avenida Arthur Thomas, 422","int":220,"wait":0},{"stopId":154262,"lat":-23.30246343,"lng":-51.19595717,"name":"Avenida Arthur Thomas, 602","int":251,"wait":0},{"stopId":154263,"lat":-23.30492188,"lng":-51.19863576,"name":"Avenida Arthur Thomas, 982","int":317,"wait":0},{"stopId":17047662,"lat":-23.30462398,"lng":-51.2010208,"name":"Rua Serra da Graciosa, 200","int":379,"wait":0},{"stopId":154265,"lat":-23.30532675,"lng":-51.20248699,"name":"Avenida Serra da Esperanﾃｧa, 1132","int":414,"wait":0},{"stopId":154266,"lat":-23.30694862,"lng":-51.2042043,"name":"Avenida Serra da Esperanﾃｧa, 1092-1116","int":457,"wait":0},{"stopId":154267,"lat":-23.3067934,"lng":-51.2065002,"name":"Rua Serra dos Mangabeiros, 114-176","int":503,"wait":0},{"stopId":154268,"lat":-23.30570618,"lng":-51.20886045,"name":"Rua Serra de Monte Carlo, 46","int":550,"wait":0},{"stopId":154271,"lat":-23.30401814,"lng":-51.21011614,"name":"Rua Serra da Jurﾃｩia, 427","int":597,"wait":0},{"stopId":154272,"lat":-23.30195516,"lng":-51.20788284,"name":"Rua Serra de Santana, 427","int":653,"wait":0},{"stopId":154275,"lat":-23.3014465,"lng":-51.20566089,"name":"Rua Serra dos Pirineus, 719","int":710,"wait":0}]}