{"tripName":"Terminal Oeste","routeName":"312 - Santo André","shape":"dx`mCxrnwHvFa@vEc@rBSbAIj@IG{@Q{DIaCp@Er@CFlDHhA|BMvBWz@Ex@GPtEJlCLlANhAf@~BxE{AxBi@fC_Az@_@j@QFCSkBCs@AeBAo@@g@dKzHt@f@fDhCrG`FxDvCbEzCxAlAnB~An@l@jCnBhDhC~@t@VTl@eA^m@pCiEfAgBV]dAcBn@aA^cAb@q@^_@RQT]V]B@F@NEJM@QAGTkAB]Fw@TeDDwAXuD`@mGTwCRwCDqG@_AJiIFqABCBGDOAOEOP]Fm@A{ADaF{@_BBcGd@KEhC","tzOffset":-3,"price":null,"stops":[{"stopId":154484,"lat":-23.27559766,"lng":-51.197952,"name":"Rua Ildo Garcia, 266","int":22,"wait":0},{"stopId":154485,"lat":-23.27672305,"lng":-51.19771445,"name":"Rua Ildo Garcia, 141","int":44,"wait":0},{"stopId":154478,"lat":-23.27783015,"lng":-51.19638428,"name":"Rua Oséias Furtoso, 929","int":86,"wait":0},{"stopId":154487,"lat":-23.27827406,"lng":-51.19699072,"name":"Rua Oséias Furtoso, 941","int":131,"wait":0},{"stopId":17047654,"lat":-23.27991135,"lng":-51.19811834,"name":"Rua Vagner Casemiro da Cunha, 60","int":193,"wait":0},{"stopId":154491,"lat":-23.28039421,"lng":-51.19905342,"name":"Rua Yoshimasa Suzuki, 244","int":210,"wait":0},{"stopId":154493,"lat":-23.28208157,"lng":-51.19923236,"name":"Rua Benício Camilo, 269","int":251,"wait":0},{"stopId":154495,"lat":-23.28328492,"lng":-51.19864446,"name":"Rua Fernando Senhorinho, 80","int":276,"wait":0},{"stopId":154497,"lat":-23.28368998,"lng":-51.19694159,"name":"Rua Figueira, 1269","int":320,"wait":0},{"stopId":154499,"lat":-23.2853631,"lng":-51.1983356,"name":"Rua Figueira, 1013-1125","int":360,"wait":0},{"stopId":154412,"lat":-23.28654813,"lng":-51.19931192,"name":"Rua Figueira, 807-983","int":388,"wait":0},{"stopId":154501,"lat":-23.28851693,"lng":-51.20091441,"name":"Rua Figueira, 607","int":435,"wait":0},{"stopId":154503,"lat":-23.29028068,"lng":-51.20238496,"name":"Rua Figueira, 411","int":477,"wait":0},{"stopId":1072192,"lat":-23.29251919,"lng":-51.20424623,"name":"Rua Figueira, 49","int":531,"wait":0},{"stopId":154508,"lat":-23.29417683,"lng":-51.20304348,"name":"Avenida Luigi Amorese, 6484b","int":577,"wait":0},{"stopId":154506,"lat":-23.29563269,"lng":-51.20098012,"name":"Rua Oeste, 20","int":623,"wait":0},{"stopId":154311,"lat":-23.29642794,"lng":-51.19936937,"name":"Avenida Luigi Amorese, 5947","int":658,"wait":0},{"stopId":154312,"lat":-23.29692736,"lng":-51.19550587,"name":"Avenida Luigi Amorese, 5525","int":726,"wait":0},{"stopId":153447,"lat":-23.2971959,"lng":-51.1871803,"name":"Terminal  Região Oeste","int":875,"wait":0}]}