{"tripName":"Hospital Evangélico","routeName":"703 - Aquiles Stenghel / Centro - Rápido","shape":"zbhmC|rfwHAnAGDEDEH@JBJHNLJR@JEFIBK@GrEGhI?xEAzC?~C@dD?pA?lA?bB?^ClH@vQAj@?d@?RBZJf@At@@tA@zA?~AA?~C?RCNIv@Q`A_@rAa@|@a@j@_@`@u@`@o@h@","tzOffset":-3,"price":null,"stops":[{"stopId":153101,"lat":-23.31193554,"lng":-51.15725373,"name":"Rua Santa Catarina, 19","int":3,"wait":0},{"stopId":153641,"lat":-23.31424589,"lng":-51.15770434,"name":"Rua Pará, 670","int":60,"wait":0},{"stopId":153876,"lat":-23.3164124,"lng":-51.1577109,"name":"Rua Senador Souza Naves 452 - Hosp. Santa Casa","int":101,"wait":0},{"stopId":498358,"lat":-23.31857004,"lng":-51.15769663,"name":"Rua Senador Souza Naves, 676","int":142,"wait":0},{"stopId":498359,"lat":-23.32121395,"lng":-51.15769275,"name":"Rua Senador Souza Naves, 1000","int":192,"wait":0},{"stopId":498370,"lat":-23.32393073,"lng":-51.15769524,"name":"Rua Senador Souza Naves, 1293","int":244,"wait":0},{"stopId":153880,"lat":-23.32608219,"lng":-51.15778754,"name":"Rua Senador Souza Naves, 1550","int":285,"wait":0},{"stopId":153904,"lat":-23.32602191,"lng":-51.16042198,"name":"Avenida Bandeirantes, 563-593","int":354,"wait":0}]}