{"tripName":"Jatoba - Perobal - N. Esperança","routeName":"215 - Novo Perobal","shape":"|rqmCbffwH|@KVTW\\iEl@i@?s@YOS|FiSNk@No@Qq@u@Uq@Z_A?{HgCe@QC]Nq@x@cAcC_ArS{Pm@uGc@uGdCcE|NmCrH{A`AKx@M^GRBM[\\u@t@s@`EeDUeBo@eBkAgAkAeAw@oA{AiCq@iB]gBSiBGsB@qBDuDtKJUeG`FASkPaCQPeTxA?XBB|HpBBBvANf@RYjAOdF[^z@N^Bv@Z|AZ|C|ElKr@mRWyAgDmHkDiG\\}A~ChCj@vAzBtEPF_@dEPnARl@p@tBFhAIvGWtGHPxDzB}AtAfB|@sAlA~@f@jE~GjMwK}FqItN_MtCfEfKmJfBv@x@Z\\{@TyAUyEy@yFGuAhAgC|C_@hDi@fDcEdE_GjCaH|AiCfBa@~CFz@D|@CzBg@vB_@jBw@NuIJqA\\mAzCgIz@qBd@cAb@g@pAUSqH","tzOffset":-3,"price":null,"stops":[{"stopId":19971541,"lat":-23.36056064,"lng":-51.1551249,"name":"Rua Maria Vidal da Silva, ponto 218","int":0,"wait":0},{"stopId":19960262,"lat":-23.36053843,"lng":-51.15237915,"name":"Rodovia Celso Garcia Cid, 374","int":99,"wait":0},{"stopId":497945,"lat":-23.35836501,"lng":-51.1490223,"name":"Rua Vitória-Régia, 76","int":215,"wait":0},{"stopId":497961,"lat":-23.35934413,"lng":-51.14816375,"name":"Rua Vitória-Régia, 200","int":239,"wait":0},{"stopId":497962,"lat":-23.36105523,"lng":-51.14618209,"name":"Rua Flor-do-Campo, 2-70","int":290,"wait":0},{"stopId":497942,"lat":-23.36078313,"lng":-51.14433752,"name":"Rua Flor-do-Campo, 216","int":323,"wait":0},{"stopId":155572,"lat":-23.36219308,"lng":-51.14271422,"name":"Rua das Magnólias, 54-124","int":369,"wait":0},{"stopId":155571,"lat":-23.3642753,"lng":-51.1421111,"name":"Rua das Magnólias, 306","int":410,"wait":0},{"stopId":498070,"lat":-23.36650485,"lng":-51.14107528,"name":"Rua Madressilva, 54","int":461,"wait":0},{"stopId":155388,"lat":-23.3673285,"lng":-51.1403543,"name":"Rua Madres Silva, 154","int":481,"wait":0},{"stopId":155389,"lat":-23.367459,"lng":-51.1393109,"name":"Rua Jacarezinho, 84","int":503,"wait":0},{"stopId":498075,"lat":-23.36595099,"lng":-51.13746775,"name":"Rua Jacarezinho, 267","int":547,"wait":0},{"stopId":155391,"lat":-23.3653119,"lng":-51.1352125,"name":"Rua Jacarezinho, 520","int":589,"wait":0},{"stopId":155392,"lat":-23.3656468,"lng":-51.1336112,"name":"Rua Roberto Conceição, 570","int":624,"wait":0},{"stopId":155393,"lat":-23.3673039,"lng":-51.1332732,"name":"Rua Salvador Tôrres Péres, 2-60","int":663,"wait":0},{"stopId":155394,"lat":-23.3683355,"lng":-51.1310685,"name":"Rua Antônio Silveira Santos, 234-286","int":723,"wait":0},{"stopId":497965,"lat":-23.36767177,"lng":-51.12907775,"name":"Rua Durval Ferreira da Silva, 38","int":769,"wait":0},{"stopId":155396,"lat":-23.3677077,"lng":-51.1274877,"name":"Rua Durval Ferreira da Silva, 204","int":797,"wait":0},{"stopId":498090,"lat":-23.368114,"lng":-51.12613841,"name":"Rua Joaquim Gregório Marquês, 130-196","int":830,"wait":0},{"stopId":155398,"lat":-23.368242,"lng":-51.1275333,"name":"Rua Augusto Galo, 221","int":858,"wait":0},{"stopId":155399,"lat":-23.3688452,"lng":-51.1281046,"name":"Rua Leopoldo Batini, 1-33","int":879,"wait":0},{"stopId":155400,"lat":-23.3706648,"lng":-51.1281502,"name":"Rua Delegado Matias Sampaio, 473-529","int":919,"wait":0},{"stopId":155401,"lat":-23.3710316,"lng":-51.1293492,"name":"Rua Delegado Matias Sampaio, 366-472","int":941,"wait":0},{"stopId":498556,"lat":-23.37238361,"lng":-51.130202,"name":"Rua Tadão Ohira, 480","int":1025,"wait":0},{"stopId":499371,"lat":-23.37251523,"lng":-51.129068,"name":"Rua Tadão Ohira, 494-596","int":1045,"wait":0},{"stopId":498566,"lat":-23.37165561,"lng":-51.127064,"name":"Rua Diógenes de Lima Bravo, 189-401","int":1084,"wait":0},{"stopId":498567,"lat":-23.3708493,"lng":-51.12526645,"name":"Rua Diógenes de Lima Bravo, 1-187","int":1122,"wait":0},{"stopId":499369,"lat":-23.3718213,"lng":-51.12622373,"name":"Rua Silvio Mariano da Silva, 238-308","int":1152,"wait":0},{"stopId":499370,"lat":-23.37240306,"lng":-51.12792436,"name":"Rua Tadão Ohira, 77","int":1187,"wait":0},{"stopId":498565,"lat":-23.3728443,"lng":-51.13009573,"name":"Rua Luís Aneli, 233","int":1227,"wait":0},{"stopId":498560,"lat":-23.37280062,"lng":-51.13178092,"name":"Rua Luís Aneli, 103","int":1257,"wait":0},{"stopId":498389,"lat":-23.373195,"lng":-51.13316036,"name":"Rua Tiome Kawabata, 59-71","int":1286,"wait":0},{"stopId":498874,"lat":-23.37338445,"lng":-51.13448164,"name":"Rua João Corrêa dos Santos, 253-387","int":1328,"wait":0},{"stopId":155404,"lat":-23.37393393,"lng":-51.13530031,"name":"Rua Benedito José Teodoro, 252","int":1348,"wait":0},{"stopId":498872,"lat":-23.37661461,"lng":-51.13167127,"name":"Rua Aristídes Simões, 146","int":1486,"wait":0},{"stopId":498865,"lat":-23.37797246,"lng":-51.13048646,"name":"Rua Aristídes Simões, 286-354","int":1519,"wait":0},{"stopId":498863,"lat":-23.37880539,"lng":-51.13111009,"name":"Rua Lourenço Antônio da Veiga, 228-290","int":1544,"wait":0},{"stopId":508153,"lat":-23.38195818,"lng":-51.12931967,"name":"Rua dos Cozinheiros, 268","int":1624,"wait":0},{"stopId":499100,"lat":-23.38162123,"lng":-51.12691846,"name":"Rua dos Cozinheiros, 516-546","int":1667,"wait":0},{"stopId":499118,"lat":-23.38307061,"lng":-51.12545218,"name":"Rua dos Arquitetos, 826","int":1714,"wait":0},{"stopId":498414,"lat":-23.38481861,"lng":-51.123779,"name":"Rua dos Arquitetos, 1110","int":1759,"wait":0},{"stopId":498297,"lat":-23.38775623,"lng":-51.12076259,"name":"Rua Rosane Wainberg, 450","int":1844,"wait":0},{"stopId":498298,"lat":-23.38904292,"lng":-51.12059191,"name":"Rua Rosane Wainberg, 570","int":1869,"wait":0},{"stopId":498299,"lat":-23.390255,"lng":-51.11980354,"name":"Rua Rosane Wainberg, 725","int":1899,"wait":0},{"stopId":498300,"lat":-23.39035854,"lng":-51.11817164,"name":"Rua Rosane Wainberg, 906-974","int":1928,"wait":0},{"stopId":498301,"lat":-23.390947,"lng":-51.11674491,"name":"Rua Rosane Wainberg, 1092-1188","int":1956,"wait":0},{"stopId":498304,"lat":-23.39169631,"lng":-51.11525719,"name":"Rua Sebastião Pedroso de Moraes, 2-70","int":1986,"wait":0},{"stopId":498305,"lat":-23.39230892,"lng":-51.11316618,"name":"Rua Henrique Vicente, 158-208","int":2030,"wait":0}]}