{"tripName":"Santa Rita / Vista Bela","routeName":"091 - Corujão Santa Rita / Vista Bela","shape":"djgmCjlgwHCoC_AQ?vD@|A@pA?f@EXERU\\]^m@j@k@^c@Ra@NoC|@uBp@wAb@gA\\_@Nc@Ve@Ta@Vs@b@_@XSRu@v@o@t@YXS\\Y`@]j@c@bAe@hASp@WbAYtAWvAO~@Mz@YvAIf@M^Mb@O`@m@rA]l@[n@o@pAo@nA_AbBYt@_@hASLEJGFS?W?SAg@?wDGqGIkFG{CCsACs@AmAEy@C}AAoDCyAAkAEmBCwBCwEE{CAsCC}DAwCE}GGiCCgBAWAe@O@UCSIMKIIEMCO?MBMFIRAP?L@NFLHLLDNBN?f@F\\BPrAHp@Bp@@r@?t@AdG@xGAbF?dABnAChB?x@?v@@pAGz@IZm@vBqB`FuAlDwQ`B{AL_BL_EXL`DBX?REPENM\\CL?PFv@NrBNtBXhC\\bHoBNuBFBZDZxCUjCS^EJGJE`@Gl@IVE^Gh@Gb@I^G\\Gp@Ep@GrAMr@Gp@Ep@?L?hAQZGrAc@v@Sp@Uf@SRKHCLVHJHB?V?lA?pA?rHtC_@vCi@nCe@fAQf@Gb@In@dAj@z@fAzAl@~@h@|@`BdCn@`Al@`ALPAF@FBBDBD@F?JRjDdFnDjFhAjBS~CG^SxASpA_@zB]rBm@jDStASzA{@q@{@o@}KsIoEoDuEoDeF_E]Yc@]a@AuBJ}@Le@Hm@JmCPkALe@Di@FuCPkAHqAJOqBEeCo@D]@U@HdCF~BgBL{BReAHy@JsBPgBLaBJgF`@qDZHn@VhAJd@TlANz@@RCRQXYVSJWD[AWC[AS@]HcChA{@h@u@p@[X[X{@v@m@^YLa@BUCUGMKa@YQEMC[AQAPqGDiCDeA@}@y@@[?[?mGEgJH??????kMQ??????eE@??????","tzOffset":-3,"price":null,"stops":[{"stopId":154357,"lat":-23.30620716,"lng":-51.16358002,"name":"Avenida Arcebispo Dom Geraldo Fernandes, 1610","int":91,"wait":0},{"stopId":154363,"lat":-23.30200991,"lng":-51.16672188,"name":"Avenida Arcebispo Dom Geraldo Fernandes, 2212-2240","int":190,"wait":0},{"stopId":154364,"lat":-23.3010575,"lng":-51.16972774,"name":"Avenida Arcebispo Dom Geraldo Fernandes, 2710","int":246,"wait":0},{"stopId":154367,"lat":-23.29967906,"lng":-51.1722028,"name":"Avenida Arcebispo Dom Geraldo Fernandes, 3120","int":297,"wait":0},{"stopId":154331,"lat":-23.29730921,"lng":-51.17321403,"name":"Avenida Rio Branco, 500","int":355,"wait":0},{"stopId":155058,"lat":-23.29482222,"lng":-51.17315955,"name":"Avenida Rio Branco, 814","int":402,"wait":0},{"stopId":155059,"lat":-23.29076151,"lng":-51.17303763,"name":"Avenida Winston Churchil, 350","int":480,"wait":0},{"stopId":830556,"lat":-23.28637567,"lng":-51.17286204,"name":"Avenida Winston Churchil, 731","int":564,"wait":0},{"stopId":155140,"lat":-23.2826283,"lng":-51.1755127,"name":"Rua Tanganica, 200","int":719,"wait":0},{"stopId":155142,"lat":-23.28258942,"lng":-51.17825798,"name":"Rua Tanzania, 525","int":767,"wait":0},{"stopId":155143,"lat":-23.28237393,"lng":-51.18135781,"name":"Rua Felipe Souza Lopes, 22","int":823,"wait":0},{"stopId":155145,"lat":-23.2814433,"lng":-51.18327131,"name":"Rua Antônio Cotarelli, 2","int":861,"wait":0},{"stopId":215292,"lat":-23.27973826,"lng":-51.18383288,"name":"Rua Antônio Cotarelli, 156","int":899,"wait":0},{"stopId":155149,"lat":-23.27662971,"lng":-51.18948198,"name":"Avenida Clárice de Lima Castro, 290","int":1058,"wait":0},{"stopId":155150,"lat":-23.27677423,"lng":-51.18981418,"name":"Avenida Clárice de Lima Castro, 191-223","int":1099,"wait":0},{"stopId":155463,"lat":-23.2825938,"lng":-51.1891678,"name":"Avenida Aracy Soares Santos, 837","int":1227,"wait":0},{"stopId":559146,"lat":-23.28320166,"lng":-51.19094449,"name":"Rua Atos Anzola 50","int":1270,"wait":0},{"stopId":212552,"lat":-23.28465107,"lng":-51.1905545,"name":"Rua Atos Anzola, 177-243","int":1298,"wait":0},{"stopId":154402,"lat":-23.2866418,"lng":-51.1917776,"name":"Rua Ruy Virmond Carnascialli, 294-474","int":1350,"wait":0},{"stopId":154401,"lat":-23.28815942,"lng":-51.19388315,"name":"Avenida Jorge García Vilar, 1101-1125","int":1398,"wait":0},{"stopId":154383,"lat":-23.29008013,"lng":-51.19640757,"name":"Rua Ruy Virmond Carnascialli, 783","int":1455,"wait":0},{"stopId":154502,"lat":-23.28798477,"lng":-51.20032205,"name":"Rua Figueira, 686","int":1572,"wait":0},{"stopId":154500,"lat":-23.28665812,"lng":-51.19921645,"name":"Rua Figueira, 862","int":1604,"wait":0},{"stopId":154498,"lat":-23.2853754,"lng":-51.1981961,"name":"Rua Figueira, 1011-1175","int":1634,"wait":0},{"stopId":154496,"lat":-23.2836779,"lng":-51.1967933,"name":"Rua Figueira, 1177-1303","int":1675,"wait":0},{"stopId":154486,"lat":-23.28087116,"lng":-51.19633754,"name":"Rua Carlos Masso, 190","int":1733,"wait":0},{"stopId":154477,"lat":-23.27771985,"lng":-51.19641951,"name":"Rua São Sebastião, 49","int":1828,"wait":0},{"stopId":154479,"lat":-23.2764736,"lng":-51.1970374,"name":"Rua São Sebastião, 100-170","int":1862,"wait":0},{"stopId":154480,"lat":-23.27458316,"lng":-51.19730573,"name":"Rua São Cipriano, 36","int":1898,"wait":0},{"stopId":154481,"lat":-23.27324629,"lng":-51.19751619,"name":"Rua São Sebastião, 513","int":1924,"wait":0},{"stopId":155689,"lat":-23.27031126,"lng":-51.20096412,"name":"Rua Anníbal Balarotti, 360","int":2029,"wait":0},{"stopId":155704,"lat":-23.26869044,"lng":-51.19973463,"name":"Rua Gregório de Souza Vacário, 930","int":2089,"wait":0},{"stopId":8934243,"lat":-23.2662513,"lng":-51.19831288,"name":"Rua André Buck, 629","int":2160,"wait":0},{"stopId":155710,"lat":-23.2637855,"lng":-51.19828665,"name":"Rua André Buck, 365","int":2207,"wait":0},{"stopId":8934244,"lat":-23.2617603,"lng":-51.19827911,"name":"Rua André Buck, 147","int":2246,"wait":0}]}