{"tripName":"Terminal Central","routeName":"099 - Corujão Bandeirantes / Ney Braga","shape":"l_dmCrnswHu@}@}B_CKIKMYYTi@h@yAx@cCZaAZaAt@aCvAcEtA}D`AkCHa@Ds@@YBc@J[To@Rm@dAuCjAaDv@yB`A_CnAaDhAsCx@sBTo@Pk@r@uBt@}BAMIIEAIAQ@GNS@WBII]IS[kBwBmBwB{CiDaCiCdG{JbBgCtBeDrAwBNYJWPa@T_@R[f@a@NUXe@JBH?HCBCBE@E@G@G?E?G@EFQFc@H}@F}@ReDFoAJ{A`@gGb@wFPgCBoEHgJ@yAD}@@WFGBKXBvAE^Ah@K`@M^OZOXM^WNGJGHAFFANGTOf@YdASbAMn@Kl@Kj@E`@AVLLHDL@L?FGFKDOASEOGWEYPaA\\{Ab@kBXgA|@sCv@qCX}A\\uBRoAZkEPeCJ_CJqBFq@FcAPaDHmAFgAP_CNuBHk@RuDLyBFkABg@Bc@FaAF_AHq@Fq@Fo@TuCRyCJuARuAPcBPmAPe@T[TUd@Ub@G`@Cv@J~@Rb@FXBZATE^MXMTQ\\]\\o@f@y@Xi@Zg@p@kAf@}@Xe@PKPITAp@AtB?fBArCApA?CoG@_GAqDAuB@iC@w@Au@AuAAaB?{@yECoEB@gAr@UTKXQVOXS\\]TURYJMBIFe@@w@A}A?y@?QBIDAL?LAAyB","tzOffset":-3,"price":null,"stops":[{"stopId":154302,"lat":-23.29100735,"lng":-51.22294217,"name":"Rua Deputado Ardinal Ribas, 131-207","int":0,"wait":0},{"stopId":154303,"lat":-23.29021575,"lng":-51.2209929,"name":"Avenida Tiradentes, 5727","int":46,"wait":0},{"stopId":154305,"lat":-23.291839,"lng":-51.21731823,"name":"Avenida Tiradentes, 5257","int":117,"wait":0},{"stopId":154306,"lat":-23.29423186,"lng":-51.21189268,"name":"Rua Horácio Sabino Coimbra, 4560","int":223,"wait":0},{"stopId":154510,"lat":-23.29278134,"lng":-51.20502105,"name":"Avenida Luigi Amorese, 6734","int":387,"wait":0},{"stopId":154508,"lat":-23.29417683,"lng":-51.20304348,"name":"Avenida Luigi Amorese, 6484b","int":431,"wait":0},{"stopId":154506,"lat":-23.29563269,"lng":-51.20098012,"name":"Rua Oeste, 20","int":477,"wait":0},{"stopId":154311,"lat":-23.29642794,"lng":-51.19936937,"name":"Avenida Luigi Amorese, 5947","int":512,"wait":0},{"stopId":154312,"lat":-23.29692736,"lng":-51.19550587,"name":"Avenida Luigi Amorese, 5525","int":580,"wait":0},{"stopId":154086,"lat":-23.29864836,"lng":-51.19028444,"name":"Avenida Universo, 354-392","int":696,"wait":0},{"stopId":154088,"lat":-23.29988388,"lng":-51.18885115,"name":"Avenida Tiradentes, 1461","int":814,"wait":0},{"stopId":498896,"lat":-23.30055982,"lng":-51.1864168,"name":"Avenida Tiradentes, 1241-1329","int":858,"wait":0},{"stopId":154092,"lat":-23.3009305,"lng":-51.1832669,"name":"Avenida Tiradentes, 977","int":914,"wait":0},{"stopId":498907,"lat":-23.30133888,"lng":-51.17988753,"name":"Avenida Tiradentes, 530","int":974,"wait":0},{"stopId":154097,"lat":-23.30184761,"lng":-51.17615692,"name":"Avenida Tiradentes, 313","int":1040,"wait":0},{"stopId":154098,"lat":-23.30215138,"lng":-51.17419696,"name":"Avenida Tiradentes, 53","int":1075,"wait":0},{"stopId":154100,"lat":-23.30412445,"lng":-51.17305368,"name":"Avenida Juscelino Kubitscheck, 212","int":1130,"wait":0},{"stopId":154101,"lat":-23.3069664,"lng":-51.17068171,"name":"Avenida Juscelino Kubitscheck, 612","int":1203,"wait":0},{"stopId":154102,"lat":-23.30880151,"lng":-51.16947591,"name":"Rua Benjamin Constant, 1941","int":1258,"wait":0},{"stopId":154103,"lat":-23.3087887,"lng":-51.1662,"name":"Rua Benjamin Constant, 1605","int":1315,"wait":0},{"stopId":154104,"lat":-23.30878747,"lng":-51.16437024,"name":"Rua Benjamin Constant, 1445","int":1347,"wait":0},{"stopId":15127333,"lat":-23.30803481,"lng":-51.16072013,"name":"Plataforma B - 405","int":1467,"wait":0}]}