{"tripName":"Terminal Central via 1","routeName":"210 - União da Vitoria","shape":"~svmCrgawHq@D]W[_@_@WcAc@QUIOGGKKa@Y}A}@o@e@g@]cAi@_@WBa@F}@Ha@R[bBq@p@YFMRc@BSBe@?g@n@y@Za@nDaF]qA_@cBGKUQ_@OLo@CSOKSB]Fe@Ig@FY`@[dABt@Gh@Wd@m@v@k@x@{@bAw@\\k@JqABmAHq@Rw@h@c@lAUXSZM^G^FnARzAPx@Zx@^h@Lv@Fr@Ap@Af@Gd@INOLM^Ef@k@x@o@r@cDnCeDlCm@u@iAyA{BaDk@f@wF~EqD`D[Vd@p@hA`BlAjBh@v@cFjEmIjHMJeEnD}CbCwD|CgAt@u@\\c@PKNOLSV[\\wAhAkDfCoC|BsC~ByBbBsDpCw@l@wGbFsAfAyCjCKLMRSRqAlAq@d@qMvK}FxEWRIHMHON[P]RcBe@ODMd@DVEJuAx@sAh@s@N{@Hs@?wACsFBsIBgEGgAOoBa@eIyAiE{@mDs@}@GiGQwFMmABsB\\}Ar@iBdAOFIJIRQf@i@J]KIOCYASAOs@mAoCyE_BiCu@iAKe@HMDI@QCKGMMMO@K@MHKJGHELk@d@}JnE}BfAeGvCkHfD}Av@yAr@gAd@qI|DaJdE}BfAiA^SKgCCaA?eR@yAEoADS?wHAsQ?sMDaK?aJAiC@eH?@vF?`C?rZ@bGyEAAYyACm@AAu@i@aT@}FBiBRq@p@aBn@yA`@s@x@aArDeFn@aAjA}Bl@mAl@q@h@}@Tu@TsARkBHa@FMDALG`@Ef@?pAT\\HV?L?XFxF~@tJnBjBN~BAlBOj@IpA]jCaAvFeCdMiFnIqCjBe@|Bq@lBk@vDcA~EkAdASfBMtB@fJl@vDVrE\\zBNzBFxCIp@GfAKvAW|Ae@pAe@hBw@r@a@d@WbEoClD}B`Au@pCqAtBs@fCe@rAKbAEnADlARh@RbDzAvFrCfClA`HjDvF|C`FdCrFjCbI|DHDXW\\g@n@e@fD_EdBsB`EqEbHaI`F}FlAwAh@f@VNbAf@TJhBPb@Dv@Jh@AzA[nAU`GeArKsBhAMn@MNC@@@BB@HABGAICCA?AIH]NU`@]fAgArAcAlCsBj@]j@GrBDbE@\\RXTt@o@n@[jAk@r@g@jA_AfMoK|MgLrAkAtAuA|@o@xBmBpAgA`Au@fDuCn@o@hAaA~AkAh@]lAmA^y@N_@Li@FYJuAGaBSqAjAYh@Ed@EfABX@jAB^Tj@^hC~Ar@`@b@Z","tzOffset":-3,"price":null,"stops":[{"stopId":498287,"lat":-23.38635553,"lng":-51.12968182,"name":"Rua Dezenove de Abril, 1-153","int":1,"wait":0},{"stopId":498290,"lat":-23.38501291,"lng":-51.128839,"name":"Rua da Cidadania, 374-436","int":32,"wait":0},{"stopId":498291,"lat":-23.38396876,"lng":-51.12802608,"name":"Rua da Cidadania, 233-277","int":57,"wait":0},{"stopId":498418,"lat":-23.38421291,"lng":-51.12675154,"name":"Rua dos Marinheiros, 90-184","int":91,"wait":0},{"stopId":498293,"lat":-23.38506215,"lng":-51.12544264,"name":"Rua dos Comerciantes, 434-494","int":121,"wait":0},{"stopId":498295,"lat":-23.38581215,"lng":-51.12375963,"name":"Rua José Barbosa, 1-49","int":157,"wait":0},{"stopId":30990516,"lat":-23.3854394,"lng":-51.12311516,"name":"Ponto palito","int":170,"wait":0},{"stopId":30990518,"lat":-23.38376628,"lng":-51.12450958,"name":"Rua dos Arquitetos, 952","int":229,"wait":0},{"stopId":30990519,"lat":-23.3823209,"lng":-51.12507648,"name":"Rua Alcides de Mattos, 213","int":260,"wait":0},{"stopId":30990520,"lat":-23.38132741,"lng":-51.12740752,"name":"Rua Emílio Striquer, 31","int":312,"wait":0},{"stopId":30990521,"lat":-23.38155293,"lng":-51.12948537,"name":"Rodovia João Alves da Rocha Loures, 10k","int":352,"wait":0},{"stopId":498219,"lat":-23.380187,"lng":-51.13099973,"name":"PR-218, 3283","int":390,"wait":0},{"stopId":498864,"lat":-23.378802,"lng":-51.13098308,"name":"Rua Lourenço Antônio da Veiga, 227-289","int":428,"wait":0},{"stopId":498866,"lat":-23.37790261,"lng":-51.13041173,"name":"Rua Aristídes Simões, 329","int":452,"wait":0},{"stopId":498871,"lat":-23.37667915,"lng":-51.13154764,"name":"Rua Aristídes Simões, 155","int":483,"wait":0},{"stopId":498873,"lat":-23.37578015,"lng":-51.13236537,"name":"Rua Aristídes Simões, 1-95","int":505,"wait":0},{"stopId":30990522,"lat":-23.37636889,"lng":-51.13440697,"name":"PR-218, 2715","int":554,"wait":0},{"stopId":30990523,"lat":-23.37401762,"lng":-51.13653057,"name":"PR-218, 2367","int":612,"wait":0},{"stopId":30990524,"lat":-23.37221461,"lng":-51.13810704,"name":"PR-218, 2055","int":656,"wait":0},{"stopId":30990525,"lat":-23.37062482,"lng":-51.1393152,"name":"Rua Firmino Lemes de Oliveira, 51","int":693,"wait":0},{"stopId":30990526,"lat":-23.36863554,"lng":-51.14105919,"name":"Avenida Guilherme de Almeida, 1515","int":742,"wait":0},{"stopId":155408,"lat":-23.3654966,"lng":-51.1436078,"name":"Avenida Guilherme de Almeida, 1041","int":817,"wait":0},{"stopId":155409,"lat":-23.36366831,"lng":-51.14509353,"name":"Avenida Guilherme de Almeida, 821","int":860,"wait":0},{"stopId":155410,"lat":-23.3620223,"lng":-51.1466575,"name":"Avenida Guilherme de Almeida, 549","int":902,"wait":0},{"stopId":30990527,"lat":-23.35950878,"lng":-51.14886729,"name":"Avenida Guilherme de Almeida, 215","int":964,"wait":0},{"stopId":498128,"lat":-23.35551739,"lng":-51.1510754,"name":"Rua Bélgica, 1911-2027","int":1058,"wait":0},{"stopId":498130,"lat":-23.35024746,"lng":-51.15083,"name":"Rua Bélgica, 1221-1307","int":1159,"wait":0},{"stopId":498132,"lat":-23.34761,"lng":-51.15011746,"name":"Rua Bélgica, 1037","int":1211,"wait":0},{"stopId":498135,"lat":-23.34509,"lng":-51.14970464,"name":"Rua Bélgica, 660-870","int":1260,"wait":0},{"stopId":498137,"lat":-23.34236067,"lng":-51.15006327,"name":"Rua Bélgica, 391","int":1313,"wait":0},{"stopId":499712,"lat":-23.34089951,"lng":-51.15006052,"name":"Rua Albânia, 313","int":1356,"wait":0},{"stopId":30990528,"lat":-23.33955582,"lng":-51.14801436,"name":"Rua Albânia, 65","int":1400,"wait":0},{"stopId":153891,"lat":-23.33613508,"lng":-51.14915773,"name":"Avenida Duque de Caxias, 516","int":1485,"wait":0},{"stopId":153892,"lat":-23.33483855,"lng":-51.14988815,"name":"Avenida Duque de Caxias, 632","int":1513,"wait":0},{"stopId":153895,"lat":-23.3329269,"lng":-51.1509919,"name":"Avenida Duque de Caxias, 844-906","int":1554,"wait":0},{"stopId":153896,"lat":-23.33035644,"lng":-51.15241471,"name":"Avenida Duque de Caxias, 1157","int":1609,"wait":0},{"stopId":153898,"lat":-23.32859933,"lng":-51.15341095,"name":"Rua Flórida, 172","int":1647,"wait":0},{"stopId":497946,"lat":-23.32657226,"lng":-51.15381033,"name":"Rua Brasil, 1949","int":1688,"wait":0},{"stopId":497947,"lat":-23.32270764,"lng":-51.15381363,"name":"Rua Brasil, 1526","int":1762,"wait":0},{"stopId":153798,"lat":-23.32103342,"lng":-51.15379138,"name":"Rua Brasil, 1311","int":1794,"wait":0},{"stopId":153799,"lat":-23.31788911,"lng":-51.15381107,"name":"Rua Brasil, 976","int":1854,"wait":0},{"stopId":153800,"lat":-23.31570014,"lng":-51.15382769,"name":"Rua Goiás, 217","int":1896,"wait":0},{"stopId":155338,"lat":-23.31371674,"lng":-51.15383055,"name":"Rua Brasil, 550","int":1934,"wait":0},{"stopId":155339,"lat":-23.31125474,"lng":-51.15383496,"name":"Rua Brasil, 247","int":1981,"wait":0},{"stopId":153422,"lat":-23.30976236,"lng":-51.15569115,"name":"Rua Sergipe, 288","int":2040,"wait":0},{"stopId":213279,"lat":-23.30975446,"lng":-51.15719095,"name":"Rua Sergipe, 444","int":2066,"wait":0},{"stopId":15121343,"lat":-23.30804795,"lng":-51.16106518,"name":"Plataforma E - 210","int":2182,"wait":0}]}