{"tripName":"Terminal Acapulco via PR 445","routeName":"214 - Jamile Dequech","shape":"j_xmCpfcwHtAoAGKqB{ByAu@wD{@CJk@vBaHcBh@eCmCm@CiAm@w@S[Ic@f@gBCc@IQYSS]MuGFm@PUC[QII?G@IBCP?TGVIZWVc@L_ATu@ZqA|@Y`@yBzAcAl@aA^s@NW?iA@sBe@g@So@i@UQyCiCy@i@}@_@}@KaA?cA@_ATy@`@s@l@k@t@mBfDeAtAoAfA{At@}HzBmCl@k@N}Bp@eB^gDd@kEt@yAPaAN[Ag@FaARs@TaCdA_LxHaEdDeBxAaBlAcF`E{CdC{C~B_H~Gs@~@aFvIu@|AeA`DUlAUtA]hAWdAOJMFONM^@^DLBFLLLJRBNCHCGVYjA[nAi@rBWjA]bA_@fA[`AYr@Qd@Gf@Bh@PVVC@GT[RUb@e@j@I","tzOffset":-3,"price":null,"stops":[{"stopId":500231,"lat":-23.39327484,"lng":-51.13975459,"name":"Rua Doutor Luís Aranda, 105-143","int":0,"wait":0},{"stopId":498902,"lat":-23.39282607,"lng":-51.138589,"name":"Rua Doutor Gilnei Carneiro Leal, 764-900","int":34,"wait":0},{"stopId":498901,"lat":-23.39139146,"lng":-51.13873108,"name":"Rua Olinto Pedriali, 128-168","int":71,"wait":0},{"stopId":498899,"lat":-23.38978531,"lng":-51.13741808,"name":"Rua Doutor Gilnei Carneiro Leal, 395-435","int":120,"wait":0},{"stopId":498898,"lat":-23.37266021,"lng":-51.13868183,"name":"Rodovia Celso Garcia Cid, 28","int":561,"wait":0},{"stopId":19960282,"lat":-23.36060263,"lng":-51.15063967,"name":"Avenida Dez de Dezembro, 7833","int":880,"wait":0},{"stopId":19960330,"lat":-23.3599514,"lng":-51.15528082,"name":"Rua Maria Vidal da Silva, ponto 214","int":1000,"wait":0}]}