{"tripName":"Terminal Acapulco","routeName":"270 - Patrimônio Selva","shape":"fi|mC`{~vHtRtJ`@z@j@jDNx@fA~Ch@nCJbA~@b@z@\\jApB{A|C{GxOeCbGaCdFeDrE_BtBaAxAeA|AqBjCa@p@_D~FsCnFsAzB]p@Sf@_@?QHGH]Rg@DcDHoOd@gB@u@?sDGqAKu@QaA]_Ae@}AoAuFkFwAwAiBoAmAg@wA[}AKkBCqKGaF?iABsSv@wSn@uHTcCN_B^{@Z}@d@a@ZaAn@uBfAw@Tg@H}@De@Aw@G{@U_By@w@w@wBmBu@e@}@[aAMcACcAJ}@Ry@`@s@l@k@t@mBfDeAtAoAfA{At@}H`CmCf@_B`@}Bn@q@N}@JmEn@qB\\qCb@m@@u@LuDfA}C`BoCvBiLfJsG`FcDxCcIlGuD`EkDxFy@fB]^q@hA{@xBs@xCIv@U~@o@lBILYPMLCZA^HXRJRH\\?mAdFg@rBm@pBoAzDQx@A`@FR^Fh@s@j@m@t@K","tzOffset":-3,"price":null,"stops":[{"stopId":499294,"lat":-23.41539769,"lng":-51.11743799,"name":"Estrada do Galo","int":0,"wait":0},{"stopId":499291,"lat":-23.41979723,"lng":-51.12270987,"name":"Estrada do Galo","int":134,"wait":0},{"stopId":499289,"lat":-23.418639,"lng":-51.127128,"name":"Rua sem nome","int":230,"wait":0},{"stopId":499287,"lat":-23.417968,"lng":-51.128347,"name":"Rua sem nome","int":255,"wait":0},{"stopId":498398,"lat":-23.39834725,"lng":-51.1335102,"name":"PR-445","int":723,"wait":0},{"stopId":498898,"lat":-23.37266021,"lng":-51.13868183,"name":"Rodovia Celso Garcia Cid, 28","int":1252,"wait":0},{"stopId":19960284,"lat":-23.3638763,"lng":-51.14532191,"name":"Rua José da Silva, 700","int":1457,"wait":0},{"stopId":19960282,"lat":-23.36060263,"lng":-51.15063967,"name":"Avenida Dez de Dezembro, 7833","int":1571,"wait":0},{"stopId":19971534,"lat":-23.35998362,"lng":-51.155276,"name":"Rua Maria Vidal da Silva, ponto 270","int":1691,"wait":0}]}