{"tripName":"Terminal Central","routeName":"301 - Presidente","shape":"z~hmCdclwHg@gAKWWY_Ag@c@Iy@c@kA_@EAYEi@e@i@a@}Bk@{Bk@OS_@oA_@eA]u@q@uBm@sBsAsCyBmGvCOfAKKqACe@IaBwAJl@eCh@_CDOTC~Gs@LCGeAQoCGgAjAIvBOvEc@PAGiAGgABy@Bo@FeA@sAKkA@wAHuC|NIxACj@Gf@On@_@d@W^e@Zq@Tu@Fa@D]?wA?a@AgEA}A@iADk@BADCHQASGQKKUGO@CDC@o@Q}EaB_@Kw@K_AEkK@{F@wEA?m@?iFmBAoJ@gJ@qA?@_C?}F?_DiAAA_A","tzOffset":-3,"price":null,"stops":[{"stopId":154119,"lat":-23.31637733,"lng":-51.18508263,"name":"Rua Nilo Peçanha, 231","int":4,"wait":0},{"stopId":154120,"lat":-23.31494453,"lng":-51.18405332,"name":"Rua Marechal Hermes da Fonseca, 19","int":37,"wait":0},{"stopId":154121,"lat":-23.31348663,"lng":-51.18337066,"name":"Rua Prudente de Morais, 93","int":68,"wait":0},{"stopId":154122,"lat":-23.3121437,"lng":-51.1811185,"name":"Rua Astorga, 359","int":118,"wait":0},{"stopId":154123,"lat":-23.31133505,"lng":-51.17934129,"name":"Rua Astorga, 187","int":153,"wait":0},{"stopId":154124,"lat":-23.31231829,"lng":-51.17634931,"name":"Rua Michigan, 961","int":243,"wait":0},{"stopId":498744,"lat":-23.31363523,"lng":-51.17612654,"name":"Rua Michigan, 825","int":268,"wait":0},{"stopId":498745,"lat":-23.31388991,"lng":-51.17460569,"name":"Rua Jonatas Serrano, 541","int":302,"wait":0},{"stopId":153916,"lat":-23.31593066,"lng":-51.17065216,"name":"Avenida Juscelino Kubitschek, 1626","int":405,"wait":0},{"stopId":153917,"lat":-23.31823589,"lng":-51.17065991,"name":"Avenida Juscelino Kubitscheck, 1854a","int":449,"wait":0},{"stopId":154127,"lat":-23.31999321,"lng":-51.16766738,"name":"Avenida Juscelino Kubitscheck, 2228","int":522,"wait":0},{"stopId":153933,"lat":-23.3187663,"lng":-51.16567022,"name":"Avenida Higienópolis, 1019","int":576,"wait":0},{"stopId":153931,"lat":-23.31565333,"lng":-51.16536331,"name":"Rua Goiás, 1427","int":636,"wait":0},{"stopId":153805,"lat":-23.31284118,"lng":-51.16397136,"name":"Rua Prefeito Hugo Cabral, 700","int":714,"wait":0},{"stopId":153806,"lat":-23.30913839,"lng":-51.1639845,"name":"Rua Prefeito Hugo Cabral, 273","int":785,"wait":0},{"stopId":15121348,"lat":-23.30835586,"lng":-51.16100886,"name":"Plataforma H - 301/302","int":853,"wait":0}]}