{"tripName":"Terminal Vivi Xavier","routeName":"402 - Conjunto Vivi Xavier","shape":"zo{lChahwHULc@jBn@MVAV@PDTVf@f@bC{Bf@GJKL]hAfBJP`AzAFn@?ZEh@s@rBq@jB[|@MZKBAB?BFF`BxAvB`BhA|@`D}B~A_AVQP]BU`@S|DoDPULARIv@c@|AkA~AuAvBeBl@i@d@a@lAjBp@|@Xb@PRLVtAq@dCtDLEJEAbBAbB_BE?~@KpJwACq@?mCE_B@?xAI|D?|DhCDtDHvA@tB@HGFIBEP?xA@zDD`CNTTz@@bA@?bE}@A?_A?cBZ?Cz@","tzOffset":-3,"price":null,"stops":[{"stopId":522809,"lat":-23.24748023,"lng":-51.16449684,"name":"Rua Helmut Baer","int":0,"wait":0},{"stopId":522810,"lat":-23.24929404,"lng":-51.16500646,"name":"Rua José Ruzon, 766","int":66,"wait":0},{"stopId":154647,"lat":-23.25414506,"lng":-51.16622176,"name":"Rua José Ruzon, 524","int":247,"wait":0},{"stopId":154648,"lat":-23.25555958,"lng":-51.16501552,"name":"Rua José Ruzon, 377","int":281,"wait":0},{"stopId":154649,"lat":-23.25633224,"lng":-51.16567966,"name":"Rua Elis Regina, 181","int":305,"wait":0},{"stopId":154642,"lat":-23.25782155,"lng":-51.16746822,"name":"Rua John Lennon, 460","int":361,"wait":0},{"stopId":154650,"lat":-23.25663589,"lng":-51.169718,"name":"Rua Paschoal Carlos Magno, 269","int":424,"wait":0},{"stopId":154651,"lat":-23.25538897,"lng":-51.17037395,"name":"Rua David Nasser, 177","int":458,"wait":0},{"stopId":154652,"lat":-23.25563576,"lng":-51.17215233,"name":"Rua Joubert de Carvalho, 555","int":493,"wait":0},{"stopId":154653,"lat":-23.25741499,"lng":-51.17219694,"name":"Rua Elvis Preslei, 20","int":527,"wait":0},{"stopId":215282,"lat":-23.26069141,"lng":-51.17269903,"name":"Terminal Vivi Xavier","int":631,"wait":0}]}