{"tripName":"Terminal Central","routeName":"231 - Pequena Londres","shape":"b{nmCt``wHs_@wKwJgCWIe@jBaB_@p@cCMOW?oDjOrA\\o@pCk@lCd@jDXxAb@rA~CtIjErMcCu@k@Ic@qA[FzEhN{@jC[dAW`A}FuBuE~OsD}BqCuBa@U]MMSKGOBMPCRi@rAc@nAwCrF_DrFo@zBg@tBk@fAo@~@DLHHF@HGNKDCXLf@^`DnC_C~IhBjBdAtAd@VjB|BjBlC|BSX[b@]j@c@`@c@`AyAnCwDjCoEdAsEzAeGfAd@n@Vb@J?zAJvBJrBFtB[nAw@x@g@f@e@n@c@v@_@jAWt@Sz@Sr@@JHFtFwBXHDLBLFJFLTD@LKZQt@_@t@mAlC[r@SnAOlBNtBM^a@`@}G~Csr@~[}L|FBfWCvAQ~AaA|C{@dAaAx@uAx@aDp@iIdAQKcB@sPE}DBcBCcC@uDHwEI{EFqEAeFE}@@qDByLB?_@wBAAiA","tzOffset":-3,"price":null,"stops":[{"stopId":155579,"lat":-23.3395124,"lng":-51.1206374,"name":"Rua Dois","int":144,"wait":0},{"stopId":153835,"lat":-23.33795784,"lng":-51.12398823,"name":"Rua Domênico Rotuno, 297-365","int":257,"wait":0},{"stopId":153834,"lat":-23.3380963,"lng":-51.125814,"name":"Rua Domênico Rotuno, 102-296","int":290,"wait":0},{"stopId":153832,"lat":-23.3391356,"lng":-51.1281422,"name":"Rua Maria José Carneiro, 625-655","int":335,"wait":0},{"stopId":153830,"lat":-23.33967736,"lng":-51.13008943,"name":"Rua José Vitachi Filho, 495-579","int":388,"wait":0},{"stopId":213304,"lat":-23.33947544,"lng":-51.13110065,"name":"Avenida José Ventura Pinto, 715","int":434,"wait":0},{"stopId":153828,"lat":-23.3395444,"lng":-51.1331499,"name":"Rua Maria Inácia de Almeida Campos, 355","int":475,"wait":0},{"stopId":153826,"lat":-23.3381135,"lng":-51.1329675,"name":"Rua Manoel Barbosa da Fonseca Filho, 275","int":509,"wait":0},{"stopId":153822,"lat":-23.3360719,"lng":-51.1347592,"name":"Rua Lázaro Zamenhof, 780-838","int":584,"wait":0},{"stopId":442791,"lat":-23.33273182,"lng":-51.1378107,"name":"Avenida Salgado Filho, 657-849","int":687,"wait":0},{"stopId":153814,"lat":-23.3328678,"lng":-51.141918,"name":"Rua Comandante Rhull, 447","int":782,"wait":0},{"stopId":498632,"lat":-23.33624553,"lng":-51.14395909,"name":"Rua Pitágoras, 2-130","int":873,"wait":0},{"stopId":153865,"lat":-23.3378118,"lng":-51.14185891,"name":"Rua Pitágoras, 372","int":920,"wait":0},{"stopId":153863,"lat":-23.33915526,"lng":-51.1392653,"name":"Rua Hikoma Udihara, 62-134","int":980,"wait":0},{"stopId":155376,"lat":-23.3386159,"lng":-51.1433744,"name":"Rua Charles Lindemberg, 1218-1432","int":1067,"wait":0},{"stopId":155372,"lat":-23.3393671,"lng":-51.145421,"name":"Avenida Portugal, 167","int":1148,"wait":0},{"stopId":153891,"lat":-23.33613508,"lng":-51.14915773,"name":"Avenida Duque de Caxias, 516","int":1248,"wait":0},{"stopId":153892,"lat":-23.33483855,"lng":-51.14988815,"name":"Avenida Duque de Caxias, 632","int":1276,"wait":0},{"stopId":153895,"lat":-23.3329269,"lng":-51.1509919,"name":"Avenida Duque de Caxias, 844-906","int":1317,"wait":0},{"stopId":153896,"lat":-23.33035644,"lng":-51.15241471,"name":"Avenida Duque de Caxias, 1157","int":1372,"wait":0},{"stopId":153898,"lat":-23.32859933,"lng":-51.15341095,"name":"Rua Flórida, 172","int":1410,"wait":0},{"stopId":155370,"lat":-23.3268726,"lng":-51.15693336,"name":"Avenida Bandeirantes, 995c","int":1491,"wait":0},{"stopId":153904,"lat":-23.32602191,"lng":-51.16042198,"name":"Avenida Bandeirantes, 563-593","int":1558,"wait":0},{"stopId":14764683,"lat":-23.32239649,"lng":-51.16139752,"name":"Rua Professor João Cândido, 1465","int":1632,"wait":0},{"stopId":153907,"lat":-23.31925348,"lng":-51.16140453,"name":"Rua Professor João Cândido, 1119","int":1692,"wait":0},{"stopId":153908,"lat":-23.31598678,"lng":-51.16142139,"name":"Rua Professor João Cândido, 789","int":1754,"wait":0},{"stopId":153909,"lat":-23.31343584,"lng":-51.16139071,"name":"Rua Professor João Cândido, 515","int":1803,"wait":0},{"stopId":15121346,"lat":-23.30814402,"lng":-51.1610625,"name":"Plataforma F - 201/221","int":1912,"wait":0}]}