{"tripName":"Terminal Vivi Xavier","routeName":"803 - Terminal Vivi Xavier / Terminal Shopping Catuaí","shape":"vebmCfniwH_A_FOs@JONDRh@Rj@Ln@\\~AVvAENIF@JDRCb@?NIFKPCTkB?}B@gFIyGGkCEgAAc@?e@AoECo@Ag@Da@FS?]ZaAn@{DfBMGSGUA[DIHKHEHKf@@VBH{ChAiBp@s@Vs@Zs@Vo@XaAXmB\\u@By@?oCAoC@gJC_J?eGCiB?mB?aA?g@?SAD_C@_FBo@mBA@_C","tzOffset":-3,"price":null,"stops":[{"stopId":153083,"lat":-23.28177129,"lng":-51.17156469,"name":"Terminal Ouro Verde","int":2,"wait":0},{"stopId":154698,"lat":-23.27963803,"lng":-51.17253081,"name":"Avenida Winston Churchil, 1443","int":115,"wait":0},{"stopId":155243,"lat":-23.27672898,"lng":-51.17247399,"name":"Avenida Winston Churchil, 1820","int":171,"wait":0},{"stopId":155241,"lat":-23.27414732,"lng":-51.17298244,"name":"Rua Lindalva Silva Bassetto, 50","int":222,"wait":0},{"stopId":155239,"lat":-23.27178875,"lng":-51.17433443,"name":"Avenida Francisco Gabriel Arruda, 125","int":278,"wait":0},{"stopId":155237,"lat":-23.26999362,"lng":-51.17518018,"name":"Rua Sérgio Djalma de Holanda, 2","int":316,"wait":0},{"stopId":155235,"lat":-23.26761366,"lng":-51.17525777,"name":"Avenida Francisco Gabriel Arruda, 742","int":362,"wait":0},{"stopId":155233,"lat":-23.26583811,"lng":-51.17525529,"name":"Avenida Francisco Gabriel Arruda, 1026","int":396,"wait":0},{"stopId":155231,"lat":-23.2641166,"lng":-51.1752874,"name":"Avenida Francisco Gabriel Arruda, 1230","int":429,"wait":0},{"stopId":918871,"lat":-23.26295237,"lng":-51.1752458,"name":"Avenida Francisco Gabriel Arruda, 1346","int":451,"wait":0},{"stopId":215282,"lat":-23.26069141,"lng":-51.17269903,"name":"Terminal Vivi Xavier","int":543,"wait":0}]}